Title,Release Year,Locations,Fun Facts,Production Company,Distributor,Director,Writer,Actor 1,Actor 2,Actor 3,Latitude,Longitude
A Jitney Elopement,1915,Golden Gate Park,"During San Francisco's Gold Rush era, the Park was part of an area designated as the ""Great Sand Waste"".",The Essanay Film Manufacturing Company,General Film Company,Charles Chaplin,Charles Chaplin,Charles Chaplin,Edna Purviance,,37.7693681,-122.48218371117709
Greed,1924,Cliff House (1090 Point Lobos Avenue),"In 1887, the Cliff House was severely damaged when the schooner Parallel, abandoned and loaded with dynamite, ran aground on the rocks below.",Metro-Goldwyn-Mayer (MGM),Metro-Goldwyn-Mayer (MGM),Eric von Stroheim,Eric von Stroheim,Zasu Pitts,Gibson Gowland,Jean Hersholt,37.77855475,-122.51407975902556
Barbary Coast,1935,,,The Samuel Goldwyn Company,United Artists,Howard Hawks,Ben Hecht,Mariam Hopkins,Edward G. Robinson,Joel McCrea,44.933143,7.540121
After the Thin Man,1936,Coit Tower,"The Tower was funded by a gift bequeathed by Lillie Hitchcock Coit, a socialite who reportedly liked to chase fires. Though the tower resembles a firehose nozzle, it was not designed this way.",Metro-Goldwyn Mayer,Metro-Goldwyn Mayer,W.S. Van Dyke,Frances Goodrich,William Powell,Myrna Loy,James Stewart,37.80237905,-122.40583435461312
San Francisco,1936,The Barbary Coast,"The Barbary Coast was a red-light district that was largely destroyed in the 1906 earthquake. Though some of the establishments were rebuilt after the earthquake, an anti-vice campaign put the establishments out of business.",Metro-Goldwyn Mayer,Metro-Goldwyn Mayer,W.S. Van Dyke,Anita Loos,Clark Gable,Jeanette MacDonald,Spencer Tracy,54.14795075,-4.478080854011932
San Francisco,1936,City Hall,"The dome of SF's City Hall is almost a foot taller than that of the US Capitol Building. In 1954, Joe DiMaggio and Marilyn Monroe married at the Beaux Arts-style building.",Metro-Goldwyn Mayer,Metro-Goldwyn Mayer,W.S. Van Dyke,Anita Loos,Clark Gable,Jeanette MacDonald,Spencer Tracy,42.0494355,13.039210233090513
Alexander's Ragtime Band,1938,Cliff House (1090 Point Lobos Avenue),"In 1887, the Cliff House was severely damaged when the schooner Parallel, abandoned and loaded with dynamite, ran aground on the rocks below.",Twentieth Century Fox Film Corporation,Twentieth Century Fox Film Corporation,Henry King,Kathryn Scola,Tyrone Power,Alice Faye,Don Ameche,37.77855475,-122.51407975902556
Alexander's Ragtime Band,1938,San Francisco Bay,,Twentieth Century Fox Film Corporation,Twentieth Century Fox Film Corporation,Henry King,Kathryn Scola,Tyrone Power,Alice Faye,Don Ameche,37.71402905,-122.30779415179862
Alexander's Ragtime Band,1938,"Fairmont Hotel (950 Mason Street, Nob Hill)","In 1945 the Fairmont hosted the United Nations Conference on International Organization as delegates arrived to draft a charter for the organization. The U.S. Secretary of State, Edward Stettinius drafted the charter in the hotel's Garden Room.",Twentieth Century Fox Film Corporation,Twentieth Century Fox Film Corporation,Henry King,Kathryn Scola,Tyrone Power,Alice Faye,Don Ameche,37.7923686,-122.41003009790424
Shadow of the Thin Man,1941,Bay Bridge,"Before opening in 1936, the bridge was blessed by Cardinal Secretary of State Eugenio Pacelli, who later became Pope Pius XII.",Metro-Goldwyn Mayer,Metro-Goldwyn Mayer,W.S. Van Dyke,Harry Kurnitz,William Powell,Myrna Loy,Barry Nelson,38.9925372,-76.3794605
The Maltese Falcon,1941,Golden Gate Bridge,"With 23 miles of ladders and 300,000 rivets in each tower, the Golden Gate Bridge was the world's longest span when it opened in 1937.",Warner Bros. Pictures,Warner Bros. Pictures,John Huston,John Huston,Humphrey Bogart,Mary Astor,Gladys George,37.81990665,-122.47858000733174
The Maltese Falcon,1941,Ferry Building,"Every hour and half-hour, the clock bell atop the Ferry Building chimes portions of the Westminster Quarters.",Warner Bros. Pictures,Warner Bros. Pictures,John Huston,John Huston,Humphrey Bogart,Mary Astor,Gladys George,37.7947815,-122.393678
Gentleman Jim,1942,The Barbary Coast,"The Barbary Coast was a red-light district that was largely destroyed in the 1906 earthquake. Though some of the establishments were rebuilt after the earthquake, an anti-vice campaign put the establishments out of business.",Warner Bros. Pictures,Warner Bros. Pictures,Raoul Walsh,Vincent Lawrence,Errol Flynn,Alexis Smith,Jack Carson,54.14795075,-4.478080854011932
"Hello Frisco, Hello",1943,,,Twentieth Century Fox Film Corporation,Twentieth Century Fox Film Corporation,Bruce Humberstone,Robert Ellis,Alice Faye,John Payne,Jack Oakie,44.933143,7.540121
Dark Passage,1947,Golden Gate Bridge,"With 23 miles of ladders and 300,000 rivets in each tower, the Golden Gate Bridge was the world's longest span when it opened in 1937.",Warner Bros. Pictures,Warner Bros. Pictures,Delmer Daves,Delmer Daves & David Goodis,Humphrey Bogart,Lauren Bacal,Bruce Bennett,37.81990665,-122.47858000733174
The Lady from Shanghai,1947,Golden Gate Park,"The Playland amusement park where ""Hall of Mirrors"" sequence at the end of the movie was filmed has since been destroyed. However, relics from the park are now housed at the nearby Cliff House.",Columbia Pictures Corp.,Columbia Pictures,Orson Welles,Orson Welles,Rita Hayworth,Orson Welles,Everett Sloane,37.7693681,-122.48218371117709
I Remember Mama,1948,"Fairmont Hotel (950 Mason Street, Nob Hill)","In 1945 the Fairmont hosted the United Nations Conference on International Organization as delegates arrived to draft a charter for the organization. The U.S. Secretary of State, Edward Stettinius drafted the charter in the hotel's Garden Room.",RKO Radio Pictures,RKO Radio Pictures,George Stevens,DeWitt Bodeen,Irene Dunne,Barbara Bel Geddes,Oskar Homolka,37.7923686,-122.41003009790424
I Remember Mama,1948,The Ferry Building,"Every hour and half-hour, the clock bell atop the Ferry Building chimes portions of the Westminster Quarters.",RKO Radio Pictures,RKO Radio Pictures,George Stevens,DeWitt Bodeen,Irene Dunne,Barbara Bel Geddes,Oskar Homolka,37.7947815,-122.393678
I Remember Mama,1948,Grant Avenue (North Beach),,RKO Radio Pictures,RKO Radio Pictures,George Stevens,DeWitt Bodeen,Irene Dunne,Barbara Bel Geddes,Oskar Homolka,37.8015732,-122.40779
To the Ends of the Earth,1948,,,Kennedy-Buckman Pictures,Columbia Pictures,Robert Stevenson,Jay Richard Kennedy,Dick Powell,Signe Hasso,Maylia,44.933143,7.540121
All About Eve,1950,Curran Theater (445 Geary Street),Called the Shubert Theatre in the film.,Twentieth Century Fox Film Corp.,Twentieth Century Fox Film Corp.,Joseph L. Mankiewicz,Joseph L. Mankiewicz,Bette Davis,Anne Baxter,George Sanders,37.78683175,-122.41060566993322
D.O.A,1950,Powell & California Streets,,Cardinal Pictures,United Artists,Rudolph Mate,Russell Rouse,Edmond O'Brien,Pamela Britton,Luther Adler,37.7847137,-122.4071968
D.O.A,1950,Union Square,"During the Civil War, pro-Union rallies were held in the Square, and thus the area was called ""Union Square"".",Cardinal Pictures,United Artists,Rudolph Mate,Russell Rouse,Edmond O'Brien,Pamela Britton,Luther Adler,40.7359091,-73.9901626
D.O.A,1950,Market & Steuart Streets (Financial District),,Cardinal Pictures,United Artists,Rudolph Mate,Russell Rouse,Edmond O'Brien,Pamela Britton,Luther Adler,37.7943901,-122.394492
The House on Telegraph Hill,1951,Telegraph Hill,"Largely untouched by the 1906 earthquake, Telegraph Hill has the most pre-1870 buildings in the city.",Twentieth Century Fox Film Corp.,Twentieth Century Fox Film Corp.,Robert Wise,Elick Moll,Richard Basehart,Valentina Cortese,William Lundigan,37.800785,-122.4040908
The House on Telegraph Hill,1951,Market Street,,Twentieth Century Fox Film Corp.,Twentieth Century Fox Film Corp.,Robert Wise,Elick Moll,Richard Basehart,Valentina Cortese,William Lundigan,35.0616172,-85.308698
The House on Telegraph Hill,1951,Coit Tower,"The Tower was funded by a gift bequeathed by Lillie Hitchcock Coit, a socialite who reportedly liked to chase fires. Though the tower resembles a firehose nozzle, it was not designed this way.",Twentieth Century Fox Film Corp.,Twentieth Century Fox Film Corp.,Robert Wise,Elick Moll,Richard Basehart,Valentina Cortese,William Lundigan,37.80237905,-122.40583435461312
The House on Telegraph Hill,1951,1227 Montgomery Street,,Twentieth Century Fox Film Corp.,Twentieth Century Fox Film Corp.,Robert Wise,Elick Moll,Richard Basehart,Valentina Cortese,William Lundigan,37.80047455,-122.4045384692372
Sudden Fear,1952,Lombard Street,Lombard Street is not actually the most crooked in SF. That honor goes to Potrero Hill's Vermont Street between 22nd and 23rd.,Joseph Kaufmann Pictures,RKO Pictures,David Miller,Lenore J. Coffee,Joan Crawford,Jack Palance,Gloria Grahame,51.5131899,-0.0887801
Sudden Fear,1952,2800 Scott Street,,Joseph Kaufmann Pictures,RKO Pictures,David Miller,Lenore J. Coffee,Joan Crawford,Jack Palance,Gloria Grahame,37.79575715,-122.44002994713792
The Caine Mutiny,1954,The Embarcadero,,Stanley Kramer Productions,Columbia Pictures,Edward Dmytryk,Stanley Roberts,Humphrey Bogart,Fred MacMurray,Jose Ferrer,37.8048548,-122.4031918
The Caine Mutiny,1954,Golden Gate Bridge,"With 23 miles of ladders and 300,000 rivets in each tower, the Golden Gate Bridge was the world's longest span when it opened in 1937.",Stanley Kramer Productions,Columbia Pictures,Edward Dmytryk,Stanley Roberts,Humphrey Bogart,Fred MacMurray,Jose Ferrer,37.81990665,-122.47858000733174
It Came From Beneath the Sea,1955,Hunters Point,"With 23 miles of ladders and 300,000 rivets in each tower, the Golden Gate Bridge was the world's longest span when it opened in 1937.",Clover Productions,Columbia Pictures,Robert Gordon,George Worthing Yates,Kenneth Tobey,Faith Domergue,Donald Curtis,35.5488308,-109.103356
It Came From Beneath the Sea,1955,Golden Gate Bridge,"With 23 miles of ladders and 300,000 rivets in each tower, the Golden Gate Bridge was the world's longest span when it opened in 1937.",Clover Productions,Columbia Pictures,Robert Gordon,George Worthing Yates,Kenneth Tobey,Faith Domergue,Donald Curtis,37.81990665,-122.47858000733174
Pal Joey,1957,Coit Tower,"The Tower was funded by a gift bequeathed by Lillie Hitchcock Coit, a socialite who reportedly liked to chase fires. Though the tower resembles a firehose nozzle, it was not designed this way.",Columbia Pictures Corporation,Columbia Pictures,George Sidney,Dorothy Kingsley,Rita Hayworth,Frank Sinatra,Kim Novak,37.80237905,-122.40583435461312
Pal Joey,1957,Barbary Coast,"The Barbary Coast was a red-light district that was largely destroyed in the 1906 earthquake. Though some of the establishments were rebuilt after the earthquake, an anti-vice campaign put the establishments out of business.",Columbia Pictures Corporation,Columbia Pictures,George Sidney,Dorothy Kingsley,Rita Hayworth,Frank Sinatra,Kim Novak,-34.0612555,137.5913723
The Lineup,1958,War Memorial Opera House (401 Van Ness Avenue),In 1945 the United Nations had its first conference at The War Memorial Opera House.,Pajemer Productions,Columbia Pictures,Don Siegel,Stirling Silliphant,Eli Wallach,Robert Keith,Richard Jaeckel,37.7785697,-122.42093450339144
The Lineup,1958,The Embarcadero,,Pajemer Productions,Columbia Pictures,Don Siegel,Stirling Silliphant,Eli Wallach,Robert Keith,Richard Jaeckel,37.8048548,-122.4031918
The Lineup,1958,Sutro Baths (Point Lobos Avenue),,Pajemer Productions,Columbia Pictures,Don Siegel,Stirling Silliphant,Eli Wallach,Robert Keith,Richard Jaeckel,37.780252,-122.51362501770885
The Lineup,1958,Pier 41,,Pajemer Productions,Columbia Pictures,Don Siegel,Stirling Silliphant,Eli Wallach,Robert Keith,Richard Jaeckel,37.8094742,-122.4118509
The Lineup,1958,2090 Jackson Street,,Pajemer Productions,Columbia Pictures,Don Siegel,Stirling Silliphant,Eli Wallach,Robert Keith,Richard Jaeckel,37.7933539,-122.42946456594387
Vertigo,1958,Palace of Fine Arts (3301 Lyon Street),"The original Palace was built for the 1915 Panama-Pacific Exposition, and completely destroyed in 1964. It was rebuilt in 1965.",Alfred J. Hitchcock Productions,Paramount Pictures,Alfred Hitchcock,Alec Coppel,James Stewart,Kim Novak,Barbara Bel Geddes,37.80291855,-122.44840286435333
Vertigo,1958,Gough & Eddy Streets (Western Addition),,Alfred J. Hitchcock Productions,Paramount Pictures,Alfred Hitchcock,Alec Coppel,James Stewart,Kim Novak,Barbara Bel Geddes,37.7823932,-122.424334
Vertigo,1958,"Fairmont Hotel (950 Mason Street, Nob Hill)","In 1945 the Fairmont hosted the United Nations Conference on International Organization as delegates arrived to draft a charter for the organization. The U.S. Secretary of State, Edward Stettinius drafted the charter in the hotel's Garden Room.",Alfred J. Hitchcock Productions,Paramount Pictures,Alfred Hitchcock,Alec Coppel,James Stewart,Kim Novak,Barbara Bel Geddes,37.7923686,-122.41003009790424
Vertigo,1958,900 Lombard Street,Lombard Street is not actually the most crooked in SF. That honor goes to Potrero Hill's Vermont Street between 22nd and 23rd.,Alfred J. Hitchcock Productions,Paramount Pictures,Alfred Hitchcock,Alec Coppel,James Stewart,Kim Novak,Barbara Bel Geddes,37.80254965,-122.41654397694688
Vertigo,1958,1007 Gough Street,Tennis courts now sit on the site; in the movie the structure was Carlota Valdes' home.,Alfred J. Hitchcock Productions,Paramount Pictures,Alfred Hitchcock,Alec Coppel,James Stewart,Kim Novak,Barbara Bel Geddes,37.782613625,-122.424240625
On the Beach,1959,,,Stanley Kramer Productions,United Artists,Stanley Kramer,John Paxton,Gregory Peck,Ava Gardner,Fred Astaire,44.933143,7.540121
Midnight Lace,1960,"Fairmont Hotel (950 Mason Street, Nob Hill)","In 1945 the Fairmont hosted the United Nations Conference on International Organization as delegates arrived to draft a charter for the organization. The U.S. Secretary of State, Edward Stettinius drafted the charter in the hotel's Garden Room.",Arwin Productions,Universal Pictures,David Miller,Ivan Goff,Doris Day,Rex Harrison,John Gavin,37.7923686,-122.41003009790424
Flower Drum Song,1961,Golden Gate Bridge,"With 23 miles of ladders and 300,000 rivets in each tower, the Golden Gate Bridge was the world's longest span when it opened in 1937.",Fields Productions,Universal Pictures,Henry Koster,Joseph Fields,Nancy Kwan,James Shigeta,Benson Fong,37.81990665,-122.47858000733174
Flower Drum Song,1961,Chinatown,"First established in the mid-19th Century, SF's Chinatown is the oldest and largest Chinatown in the US.",Fields Productions,Universal Pictures,Henry Koster,Joseph Fields,Nancy Kwan,James Shigeta,Benson Fong,40.7164913,-73.9962504
Pleasure of His Company,1961,2700 Vallejo Street (Pacific Heights),,Perlsea Company,Parmaount Pictures,George Seaton,Samuel A. Taylor,Fred Astaire,Debbie Reynolds,Lilli Palmer,37.7945936,-122.44201804663476
Swingin' Along,1961,Powell Street,,Twentieth Century Fox Film Corporation,Twentieth Century Fox Film Corporation,Charles Barton,Jameson Brewer,Tommy Noonan,Barbara Eden,Peter Marshall,37.7847137,-122.4071968
Birdman of Alcatraz,1962,Alcatraz Island,Alcatraz Island was a military fort before it became a prison.,Norma Productions,United Artists,John Frankenheimer,Guy Trosper,Burt Lancaster,Karl Maden,Thelma Ritter,37.82672135,-122.42275899441964
Birdman of Alcatraz,1962,Pier 43 1/2,,Norma Productions,United Artists,John Frankenheimer,Guy Trosper,Burt Lancaster,Karl Maden,Thelma Ritter,-21.3337167,-51.8543664
Days of Wine and Roses,1962,,,Warner Bros. Pictures,Warner Bros. Pictures,Blake Edwards,JP Miller,Jack Lemmon,Lee Remick,Charles Bickford,44.933143,7.540121
Experiment in Terror,1962,George Washington High School (600 32nd Avenue ),,Columbia Pictures Corporation,Columbia Pictures,Blake Edwards,The Gordons,Glenn Ford,Lee Remick,Stefanie Powers,37.77847585,-122.49107259757233
Experiment in Terror,1962,Candlestick Park,"Then Vice President Richard Nixon threw out the first pitch when Candlestick opened in 1960. On August 29, 1966, The Beatles played their last concert for paying fans at Candlestick Park.",Columbia Pictures Corporation,Columbia Pictures,Blake Edwards,The Gordons,Glenn Ford,Lee Remick,Stefanie Powers,43.65295875,-116.35700182713572
Experiment in Terror,1962,100 St. Germain Avenue,,Columbia Pictures Corporation,Columbia Pictures,Blake Edwards,The Gordons,Glenn Ford,Lee Remick,Stefanie Powers,37.7576639,-122.45053451598665
The Birds,1963,Powell and Geary Streets (Union Square),"The pet shop featured in the film does not exist, but was based on the now-closed Robison's House of Pets formerly located on Maiden Lane.",Universal Pictures,Universal Pictures,Alfred Hitchcock,Evan Hunter,Tippi Hedren,Suzanne Pleshette,Rod Taylor,37.7873839,-122.4085856
Guess Who's Coming to Dinner,1967,San Francisco International Airport,SFO has a museum dedicated to aviation history.,Columbia Pictures Corporation,Columbia Pictures,Stanley Kramer,William Rose,Spencer Tracy,Sidney Poitier,Katharine Hepburn,37.622452,-122.38407160781362
Guess Who's Coming to Dinner,1967,634 Raycliff Terrace,,Columbia Pictures Corporation,Columbia Pictures,Stanley Kramer,William Rose,Spencer Tracy,Sidney Poitier,Katharine Hepburn,37.7928802,-122.4426626
Point Blank,1967,Alcatraz Island,Alcatraz Island was a military fort before it became a prison.,Metro-Goldwyn Mayer,Metro-Goldwyn Mayer,John Boorman,Alexander Jacobs,Lee Marvin,Angie Dickinson,Keenan Wynn,37.82672135,-122.42275899441964
The Graduate,1967,Bay Bridge,"Before opening in 1936, the bridge was blessed by Cardinal Secretary of State Eugenio Pacelli, who later became Pope Pius XII.",Embassy Pictures Corporation,Embassy Pictures Corporation,Mike Nichols,Calder Willingham,Anne Bancroft,Dustin Hoffman,Katharine Ross,38.9925372,-76.3794605
Bullitt,1968,McLaren Park (Visitacion  Valley),"McLaren Park is the 2nd largest park in San Francisco, after Golden Gate Park.","Warner Brothers / Seven Arts
Seven Arts",Warner Brothers,Peter Yates,Alan R. Trustman,Steve McQueen,Jacqueline Bisset,Robert Vaughn,37.71247875,-122.40789724654108
Bullitt,1968,Mark Hopkins Hotel (999 California Street),The Top of the Mark lounge and restaurant at the top of the hotel was formerly a penthouse suite.,"Warner Brothers / Seven Arts
Seven Arts",Warner Brothers,Peter Yates,Alan R. Trustman,Steve McQueen,Jacqueline Bisset,Robert Vaughn,37.79139355,-122.41021889112037
Bullitt,1968,Marina Green (Marina District),"Before the 1906 earthquake, the land on which Marina Green sits was a tidal marsh, and rubble from the earthquake was dumped on the site. However, the site was filled in to provide land for the 1915 Panama-Pacific Exhibition.","Warner Brothers / Seven Arts
Seven Arts",Warner Brothers,Peter Yates,Alan R. Trustman,Steve McQueen,Jacqueline Bisset,Robert Vaughn,37.8066027,-122.4391165857657
Bullitt,1968,Larkin & Francisco Streets (Russian Hill),,"Warner Brothers / Seven Arts
Seven Arts",Warner Brothers,Peter Yates,Alan R. Trustman,Steve McQueen,Jacqueline Bisset,Robert Vaughn,37.7925186,-122.419567
Bullitt,1968,John Muir Drive (Lake Merced),,"Warner Brothers / Seven Arts
Seven Arts",Warner Brothers,Peter Yates,Alan R. Trustman,Steve McQueen,Jacqueline Bisset,Robert Vaughn,37.7162486,-122.495437
Bullitt,1968,Columbus & Lombard Streets (North Beach),,"Warner Brothers / Seven Arts
Seven Arts",Warner Brothers,Peter Yates,Alan R. Trustman,Steve McQueen,Jacqueline Bisset,Robert Vaughn,37.8028438,-122.414033
Bullitt,1968,Cesar Chavez & Mission Street (Mission),,"Warner Brothers / Seven Arts
Seven Arts",Warner Brothers,Peter Yates,Alan R. Trustman,Steve McQueen,Jacqueline Bisset,Robert Vaughn,37.75492785,-122.41489192214914
Bullitt,1968,Bay Bridge,"Before opening in 1936, the bridge was blessed by Cardinal Secretary of State Eugenio Pacelli, who later became Pope Pius XII.","Warner Brothers / Seven Arts
Seven Arts",Warner Brothers,Peter Yates,Alan R. Trustman,Steve McQueen,Jacqueline Bisset,Robert Vaughn,38.9925372,-76.3794605
Bullitt,1968,2700 Vallejo Street (Pacific Heights),,"Warner Brothers / Seven Arts
Seven Arts",Warner Brothers,Peter Yates,Alan R. Trustman,Steve McQueen,Jacqueline Bisset,Robert Vaughn,37.7945936,-122.44201804663476
Bullitt,1968,20th & Vermont Streets (Potrero Hill),The most crooked street in San Francisco is actually Potrero Hill's Vermont Street between 20th St & 22nd St.,"Warner Brothers / Seven Arts
Seven Arts",Warner Brothers,Peter Yates,Alan R. Trustman,Steve McQueen,Jacqueline Bisset,Robert Vaughn,37.7585456,-122.4039131
Bullitt,1968,1153-57 Taylor Street,"Embarcadero Freeway, which was featured in the film was demolished in 1989 because of structural damage from the 1989 Loma Prieta Earthquake)","Warner Brothers / Seven Arts
Seven Arts",Warner Brothers,Peter Yates,Alan R. Trustman,Steve McQueen,Jacqueline Bisset,Robert Vaughn,35.9886697,-78.8664273
Petulia,1968,"Fairmont Hotel (950 Mason Street, Nob Hill)","In 1945 the Fairmont hosted the United Nations Conference on International Organization as delegates arrived to draft a charter for the organization. The U.S. Secretary of State, Edward Stettinius drafted the charter in the hotel's Garden Room.",Warner Brothers / Seven Arts,Warner Brothers / Seven Arts,Richard Lester,Lawrence B. Marcus,Julie Christie,George C. Scott,Richard Chamberlain,37.7923686,-122.41003009790424
Petulia,1968,Pier 43 1/2,,Warner Brothers / Seven Arts,Warner Brothers / Seven Arts,Richard Lester,Lawrence B. Marcus,Julie Christie,George C. Scott,Richard Chamberlain,-21.3337167,-51.8543664
Petulia,1968,307 Filbert Street,,Warner Brothers / Seven Arts,Warner Brothers / Seven Arts,Richard Lester,Lawrence B. Marcus,Julie Christie,George C. Scott,Richard Chamberlain,37.80185808163265,-122.40478104081632
Petulia,1968,2417 Franklin Street,,Warner Brothers / Seven Arts,Warner Brothers / Seven Arts,Richard Lester,Lawrence B. Marcus,Julie Christie,George C. Scott,Richard Chamberlain,37.7967047,-122.42561044758892
Psych-Out,1968,,,Dick Clark Productions,American International Pictures (AIP),Richard Rush,Betty Tusher,Jack Nicholson,Susan Strasberg,Dean Stockwell,44.933143,7.540121
The Love Bug,1968,Golden Gate Bridge,"With 23 miles of ladders and 300,000 rivets in each tower, the Golden Gate Bridge was the world's longest span when it opened in 1937.",Walt Disney Productions,Buena Vista Distribution,Robert Stevenson,Bill Walsh,Dean Jones,Michele Lee,David Tomlinson,37.81990665,-122.47858000733174
The Love Bug,1968,100 Block of Lombard Street,Lombard Street is not actually the most crooked in SF. That honor goes to Potrero Hill's Vermont Street between 22nd and 23rd.,Walt Disney Productions,Buena Vista Distribution,Robert Stevenson,Bill Walsh,Dean Jones,Michele Lee,David Tomlinson,37.8021525,-122.418651
"Yours, Mine and Ours",1968,,,Desilu Productions,United Artists,Melville Shavelson,"Bob Carroll, Jr.",Lucille Ball,Henry Fonda,Van Johnson,44.933143,7.540121
Take the Money and Run,1969,Mission Street,,American Broadcasting Company (ABC),Cinerama Releasing Corporation,Woody Allen,Woody Allen,Woody Allen,Janet Margolin,,29.412704,-98.491147
Take the Money and Run,1969,Golden Gate Park,,American Broadcasting Company (ABC),Cinerama Releasing Corporation,Woody Allen,Woody Allen,Woody Allen,Janet Margolin,,37.7693681,-122.48218371117709
Take the Money and Run,1969,Bank of America (1455 Stockton Street),,American Broadcasting Company (ABC),Cinerama Releasing Corporation,Woody Allen,Woody Allen,Woody Allen,Janet Margolin,,37.7993386,-122.4091907
They Call Me MISTER Tibbs,1970,,,Mirisch Corporation,United Artists,Gordon Douglas,Alan R. Trustman,Sidney Poitier,Martin Landau,Barbara McNair,44.933143,7.540121
Dirty Harry,1971,"Marina Green, Marina District","Before the 1906 earthquake, the land on which Marina Green sits was a tidal marsh, and rubble from the earthquake was dumped on the site. However, the site was filled in to provide land for the 1915 Panama-Pacific Exhibition.",The Malpaso Company,Warner Brothers,Don Siegel,Harry Julian Fink,Clint Eastwood,Harry Guardino,,37.8066027,-122.4391165857657
Dirty Harry,1971,"Washington Square, North Beach",,The Malpaso Company,Warner Brothers,Don Siegel,Harry Julian Fink,Clint Eastwood,Harry Guardino,,37.800864700000005,-122.41010153142976
Dirty Harry,1971,The Embarcadero,,The Malpaso Company,Warner Brothers,Don Siegel,Harry Julian Fink,Clint Eastwood,Harry Guardino,,37.8048548,-122.4031918
Dirty Harry,1971,Portsmouth Square (Chinatown),In 1847 the first public school in California was erected on what would become Portsmouth Square.,The Malpaso Company,Warner Brothers,Don Siegel,Harry Julian Fink,Clint Eastwood,Harry Guardino,,37.79483365,-122.40532995
Dirty Harry,1971,Mission Dolores Park (Mission District),"The two land plots that comprise the Park were used as a Jewish cemetery until 1894 when San Francisco prohibited all burials within city limits. The graves were moved to Colma, CA.",The Malpaso Company,Warner Brothers,Don Siegel,Harry Julian Fink,Clint Eastwood,Harry Guardino,,37.7597203,-122.4271322952394
Dirty Harry,1971,Hall of Justice (850 Bryant Street),,The Malpaso Company,Warner Brothers,Don Siegel,Harry Julian Fink,Clint Eastwood,Harry Guardino,,37.77513815,-122.40427695123522
Dirty Harry,1971,Bank of America Building (555 California Street),"The Bank of America Building was the tallest building on the West Coast from 1969-1972, when it was surpassed by the TransAmerica Pyramid. Today, the Bank of America building is the 5th tallest building on the West Coast.",The Malpaso Company,Warner Brothers,Don Siegel,Harry Julian Fink,Clint Eastwood,Harry Guardino,,37.7921033,-122.40374513697353
Harold and Maude,1971,Sutro Baths (Point Lobos Avenue),,Mildred Lewis and Colin Higgins Productions,Paramount Pictures,Hal Ashby,Colin Higgins,Ruth Gordon,Bud Cort,,37.780252,-122.51362501770885
Harold and Maude,1971,Golden Gate Park,,Mildred Lewis and Colin Higgins Productions,Paramount Pictures,Hal Ashby,Colin Higgins,Ruth Gordon,Bud Cort,,37.7693681,-122.48218371117709
The Organization,1971,,,The Mirisch Corporation,United Artists,Don Medford,James R. Webb,Sidney Poitier,Barbara McNair,,44.933143,7.540121
"Play it Again, Sam",1972,Aquatic Park (Jefferson Street),"Located at one end of Fisherman's Wharf, Aquatic Park was built as part of FDR's Works Progress Administration Project.",Paramount Pictures,Paramount Pictures,Herbert Ross,Woody Allen,Woody Allen,Diane Keaton,Tony Roberts,37.80700515,-122.42231362085428
"Play it Again, Sam",1972,15-17 Fresno Street,,Paramount Pictures,Paramount Pictures,Herbert Ross,Woody Allen,Woody Allen,Diane Keaton,Tony Roberts,36.739128,-119.787692
What's Up Doc?,1972,Hyde Street Pier,,Warner Bros. Pictures,Warner Bros. Pictures,Peter Bogdanovich,Peter Bogdanovich & Buck Henry,Barbra Streisand,Ryan O'Neal,,37.8091309,-122.4213299
What's Up Doc?,1972,Chinatown,"First established in the mid-19th Century, SF's Chinatown is the oldest and largest Chinatown in the US.",Warner Bros. Pictures,Warner Bros. Pictures,Peter Bogdanovich,Peter Bogdanovich & Buck Henry,Barbra Streisand,Ryan O'Neal,,40.7164913,-73.9962504
What's Up Doc?,1972,Alta Plaza Park (Steiner Street),The park was originally a rock quarry and served as a campground for many survivors of the 1906 earthquake. The site was converted to a park in 1910.,Warner Bros. Pictures,Warner Bros. Pictures,Peter Bogdanovich,Peter Bogdanovich & Buck Henry,Barbra Streisand,Ryan O'Neal,,37.79121525,-122.43769503865178
American Graffiti,1973,3355 Geary Blvd.,,Universal Pictures,Universal Pictures',George Lucas,George Lucas,Richard Dreyfuss,Ron Howard,Paul Le Mat,37.7811626,-122.4549056
Magnum Force,1973,Cost Plus World Market (2552 Taylor Street),,The Malpaso Company,Warner Bros. Pictures,Ted Post,John Milius,Clint Eastwood,Hal Holbrook,Mitchell Ryan,37.8059438,-122.4147529
Magnum Force,1973,San Francisco International Airport,SFO has a museum dedicated to aviation history.,The Malpaso Company,Warner Bros. Pictures,Ted Post,John Milius,Clint Eastwood,Hal Holbrook,Mitchell Ryan,37.622452,-122.38407160781362
Magnum Force,1973,"Pacific Heights Towers (2200 Sacramento Street, Pacific Heights)",,The Malpaso Company,Warner Bros. Pictures,Ted Post,John Milius,Clint Eastwood,Hal Holbrook,Mitchell Ryan,37.790655150000006,-122.42949816119808
Magnum Force,1973,Hall of Justice (850 Bryant Street),,The Malpaso Company,Warner Bros. Pictures,Ted Post,John Milius,Clint Eastwood,Hal Holbrook,Mitchell Ryan,37.77513815,-122.40427695123522
Magnum Force,1973,Golden Gate Bridge,"With 23 miles of ladders and 300,000 rivets in each tower, the Golden Gate Bridge was the world's longest span when it opened in 1937.",The Malpaso Company,Warner Bros. Pictures,Ted Post,John Milius,Clint Eastwood,Hal Holbrook,Mitchell Ryan,37.81990665,-122.47858000733174
Magnum Force,1973,"Fairmont Hotel (950 Mason Street, Nob Hill)","In 1945 the Fairmont hosted the United Nations Conference on International Organization as delegates arrived to draft a charter for the organization. The U.S. Secretary of State, Edward Stettinius drafted the charter in the hotel's Garden Room.",The Malpaso Company,Warner Bros. Pictures,Ted Post,John Milius,Clint Eastwood,Hal Holbrook,Mitchell Ryan,37.7923686,-122.41003009790424
Magnum Force,1973,City Hall,"The dome of SF's City Hall is almost a foot taller than that of the US Capitol Building. In 1954, Joe DiMaggio and Marilyn Monroe married at the Beaux Arts-style building.",The Malpaso Company,Warner Bros. Pictures,Ted Post,John Milius,Clint Eastwood,Hal Holbrook,Mitchell Ryan,42.0494355,13.039210233090513
Magnum Force,1973,Broadway Tunnel (Russian Hill),,The Malpaso Company,Warner Bros. Pictures,Ted Post,John Milius,Clint Eastwood,Hal Holbrook,Mitchell Ryan,37.796776300000005,-122.41483791086031
Magnum Force,1973,2190 Washington Street (Pacific Heights),,The Malpaso Company,Warner Bros. Pictures,Ted Post,John Milius,Clint Eastwood,Hal Holbrook,Mitchell Ryan,37.79261185,-122.42923753334452
The Laughing Policeman,1973,,,Twentieth Century Fox Film Corporation,American Broadcasting Company (ABC),Stuart Rosenberg,Thomas Rickman,Walter Matthau,Bruce Dern,Louis Gossett Jr.,44.933143,7.540121
Freebie and the Bean,1974,Alco Plaza,,Warner Bros. Pictures,American Broadcasting Company (ABC),Richard Rush,Robert Kaufman,Alan Arkin,James Caan,Loretta Swit,13.11700145,-86.99180841692328
Freebie and the Bean,1974,Twin Peaks,"The 2nd highest point in SF after Mt. Davidson, Twin Peaks sit at the geographic center of SF. The native Ohlone people called the area ""called the area “Los Pechos de la Chola” or ""Breasts of the Indian Maiden,"" but in the 19th Century when America took over the area, it was renamed ""Twin Peaks"".",Warner Bros. Pictures,American Broadcasting Company (ABC),Richard Rush,Robert Kaufman,Alan Arkin,James Caan,Loretta Swit,37.75464,-122.44648
Freebie and the Bean,1974,TransAmerica Pyramid (600 Montgomery Street),"The Pyramid was the tallest skyscraper west of the Mississippi from 1972-1974, until it was surpassed by Los Angeles' Aon Center.",Warner Bros. Pictures,American Broadcasting Company (ABC),Richard Rush,Robert Kaufman,Alan Arkin,James Caan,Loretta Swit,37.79520055,-122.40279267840135
Freebie and the Bean,1974,Potrero Hill,The most crooked street in San Francisco is actually Potrero Hill's Vermont Street between 20th St & 22nd St.,Warner Bros. Pictures,American Broadcasting Company (ABC),Richard Rush,Robert Kaufman,Alan Arkin,James Caan,Loretta Swit,37.7565834,-122.3991374
Freebie and the Bean,1974,Nob Hill,"Railroad tycoons like Leland Stanford (founder of Stanford University) lived in Nob Hill at the turn of the 20th Century. The 1906 earthquake completely destroyed Nob Hill, with the exception of the wall that surrounded the mansions of Stanford and his neighbor Mark Hopkins.",Warner Bros. Pictures,American Broadcasting Company (ABC),Richard Rush,Robert Kaufman,Alan Arkin,James Caan,Loretta Swit,22.34154705,114.13711825045584
Freebie and the Bean,1974,Folsom Street (SOMA),,Warner Bros. Pictures,American Broadcasting Company (ABC),Richard Rush,Robert Kaufman,Alan Arkin,James Caan,Loretta Swit,37.777399,-122.4070353
Freebie and the Bean,1974,"Fairmont Hotel (950 Mason Street, Nob Hill)","In 1945 the Fairmont hosted the United Nations Conference on International Organization as delegates arrived to draft a charter for the organization. The U.S. Secretary of State, Edward Stettinius drafted the charter in the hotel's Garden Room.",Warner Bros. Pictures,American Broadcasting Company (ABC),Richard Rush,Robert Kaufman,Alan Arkin,James Caan,Loretta Swit,37.7923686,-122.41003009790424
Freebie and the Bean,1974,Broadway and Columbus Avenue (North Beach),,Warner Bros. Pictures,American Broadcasting Company (ABC),Richard Rush,Robert Kaufman,Alan Arkin,James Caan,Loretta Swit,37.7981887,-122.4069562
Herbie Rides Again,1974,Golden Gate Bridge,"With 23 miles of ladders and 300,000 rivets in each tower, the Golden Gate Bridge was the world's longest span when it opened in 1937.",Walt Disney Productions,Buena Vista Distribution,Robert Stevenson,Bill Walsh,Helen Hayes,Ken Berry,Stefanie Powers,37.81990665,-122.47858000733174
The Conversation,1974,Alta Plaza Park (Steiner Street),The park was originally a rock quarry and served as a campground for many survivors of the 1906 earthquake. The site was converted to a park in 1910.,American Zoetrope,Paramount Pictures,Francis Ford Coppola,Francis Ford Coppola,Gene Hackman,John Cazale,Allen Garfield,37.79121525,-122.43769503865178
The Conversation,1974,Union Square,"During the Civil War, pro-Union rallies were held in the Square, and thus the area was called ""Union Square"".",American Zoetrope,Paramount Pictures,Francis Ford Coppola,Francis Ford Coppola,Gene Hackman,John Cazale,Allen Garfield,40.7359091,-73.9901626
The Conversation,1974,"Saks Fifth Avenue (384 Post Street, Union Square)",,American Zoetrope,Paramount Pictures,Francis Ford Coppola,Francis Ford Coppola,Gene Hackman,John Cazale,Allen Garfield,37.78862645,-122.40811375444108
The Conversation,1974,"Neiman Marcus (150 Stockton Street, Union Square)",In the film the City of Paris Department Store is featured. That establishment was located where Neiman Marcus stands today,American Zoetrope,Paramount Pictures,Francis Ford Coppola,Francis Ford Coppola,Gene Hackman,John Cazale,Allen Garfield,37.78736295,-122.4059186080106
The Conversation,1974,Financial District,,American Zoetrope,Paramount Pictures,Francis Ford Coppola,Francis Ford Coppola,Gene Hackman,John Cazale,Allen Garfield,40.7076681,-74.009271
The Towering Inferno,1974,"Bank of America Building (555 California Street, Financial District)","The Bank of America Building was the tallest building on the West Coast from 1969-1972, when it was surpassed by the TransAmerica Pyramid. Today, the Bank of America building is the 5th tallest building on the West Coast.",Irwin Allen Productions,Twentieth Century - Fox,John Guillermin,Stirling Silliphant,Steve McQueen,Paul Newman,William Holden,37.7921033,-122.40374513697353
The Towering Inferno,1974,"San Francisco Fire Station 38 (2150 California Street, Pacific Heights)",,Irwin Allen Productions,Twentieth Century - Fox,John Guillermin,Stirling Silliphant,Steve McQueen,Paul Newman,William Holden,37.78968755,-122.4298575287077
The Towering Inferno,1974,"Fairmont Hotel (950 Mason Street, Nob Hill)","In 1945 the Fairmont hosted the United Nations Conference on International Organization as delegates arrived to draft a charter for the organization. The U.S. Secretary of State, Edward Stettinius drafted the charter in the hotel's Garden Room.",Irwin Allen Productions,Twentieth Century - Fox,John Guillermin,Stirling Silliphant,Steve McQueen,Paul Newman,William Holden,37.7923686,-122.41003009790424
The Towering Inferno,1974,2898 Vallejo Street,,Irwin Allen Productions,Twentieth Century - Fox,John Guillermin,Stirling Silliphant,Steve McQueen,Paul Newman,William Holden,37.79426085,-122.44489425043771
Family Plot,1976,"Fairmont Hotel (950 Mason Street, Nob Hill)","In 1945 the Fairmont hosted the United Nations Conference on International Organization as delegates arrived to draft a charter for the organization. The U.S. Secretary of State, Edward Stettinius drafted the charter in the hotel's Garden Room.",Universal Pictures,Universal Pictures,Alfred Hitchcock,Ernest Lehman,Karen Black,Bruce Dern,Barbara Harris,37.7923686,-122.41003009790424
Family Plot,1976,2230 Sacramento Street,"Called ""1001 Franklin"" in the film.",Universal Pictures,Universal Pictures,Alfred Hitchcock,Ernest Lehman,Karen Black,Bruce Dern,Barbara Harris,37.79056795,-122.43060857659091
Family Plot,1976,Nob Hill,"Railroad tycoons like Leland Stanford (founder of Stanford University) lived in Nob Hill at the turn of the 20th Century. The 1906 earthquake completely destroyed Nob Hill, with the exception of the wall that surrounded the mansions of Stanford and his neighbor Mark Hopkins.",Universal Pictures,Universal Pictures,Alfred Hitchcock,Ernest Lehman,Karen Black,Bruce Dern,Barbara Harris,22.34154705,114.13711825045584
The Enforcer,1976,Hall of Justice,,Warner Bros. Pictures,Warner Bros. Pictures,James Fargo,Stirling Silliphant,Clint Eastwood,Tyne Daly,Harry Guardino,37.77513815,-122.40427695123522
The Enforcer,1976,Coit Tower,"The Tower was funded by a gift bequeathed by Lillie Hitchcock Coit, a socialite who reportedly liked to chase fires. Though the tower resembles a firehose nozzle, it was not designed this way.",Warner Bros. Pictures,Warner Bros. Pictures,James Fargo,Stirling Silliphant,Clint Eastwood,Tyne Daly,Harry Guardino,37.80237905,-122.40583435461312
The Enforcer,1976,City Hall,"The dome of SF's City Hall is almost a foot taller than that of the US Capitol Building. In 1954, Joe DiMaggio and Marilyn Monroe married at the Beaux Arts-style building.",Warner Bros. Pictures,Warner Bros. Pictures,James Fargo,Stirling Silliphant,Clint Eastwood,Tyne Daly,Harry Guardino,42.0494355,13.039210233090513
The Enforcer,1976,Alcatraz Island,Alcatraz Island was a military fort before it became a prison.,Warner Bros. Pictures,Warner Bros. Pictures,James Fargo,Stirling Silliphant,Clint Eastwood,Tyne Daly,Harry Guardino,37.82672135,-122.42275899441964
The Enforcer,1976,23rd & Capp Streets (Mission District),,Warner Bros. Pictures,Warner Bros. Pictures,James Fargo,Stirling Silliphant,Clint Eastwood,Tyne Daly,Harry Guardino,37.7587902,-122.4179922
A Night Full of Rain,1978,"Fairmont Hotel (950 Mason Street, Nob Hill)","In 1945 the Fairmont hosted the United Nations Conference on International Organization as delegates arrived to draft a charter for the organization. The U.S. Secretary of State, Edward Stettinius drafted the charter in the hotel's Garden Room.",Liberty Film,Warner Bros. Pictures,Lina Wertmuller,Lina Wertmuller,Candice Bergen,Giancarlo Gianni,,37.7923686,-122.41003009790424
A Night Full of Rain,1978,Broadway (North Beach),,Liberty Film,Warner Bros. Pictures,Lina Wertmuller,Lina Wertmuller,Candice Bergen,Giancarlo Gianni,,41.2752029,-72.4860131
Faces of Death,1978,,,F.O.D Productions,Aquarius Releasing,Conan Le Cilaire,Alan Black,Michael Carr,,,44.933143,7.540121
Foul Play,1978,War Memorial Opera House (401 Van Ness Avenue),In 1945 the United Nations had its first conference at The War Memorial Opera House.,Paramount Pictures,Paramount Pictures,Colin Higgins,Colin Higgins,Goldie Hawn,Chevy Chase,Burgess Meredith,37.7785697,-122.42093450339144
Foul Play,1978,Sutter & Baker Streets,,Paramount Pictures,Paramount Pictures,Colin Higgins,Colin Higgins,Goldie Hawn,Chevy Chase,Burgess Meredith,37.7849285,-122.4430382
Foul Play,1978,Sacramento & Hyde Streets (Nob Hill),,Paramount Pictures,Paramount Pictures,Colin Higgins,Colin Higgins,Goldie Hawn,Chevy Chase,Burgess Meredith,37.7920056,-122.4174588
Foul Play,1978,Octavia & Hayes Streets (Hayes Valley),,Paramount Pictures,Paramount Pictures,Colin Higgins,Colin Higgins,Goldie Hawn,Chevy Chase,Burgess Meredith,37.771902,-122.4233494
Foul Play,1978,Montgomery & Pine Streets (Financial District),,Paramount Pictures,Paramount Pictures,Colin Higgins,Colin Higgins,Goldie Hawn,Chevy Chase,Burgess Meredith,37.7919972,-122.402452
Foul Play,1978,Laguna & Sacramento Streets (Pacific Heights),,Paramount Pictures,Paramount Pictures,Colin Higgins,Colin Higgins,Goldie Hawn,Chevy Chase,Burgess Meredith,37.7903902,-122.429228
Foul Play,1978,"Fort Point, Presidio","Built in 1853, Fort Point is the only West Coast fort built by the Union Army. Though the Confederate army planned to attack San Francisco, the commanding Confederate general learned that the war had ended while end route to SF.",Paramount Pictures,Paramount Pictures,Colin Higgins,Colin Higgins,Goldie Hawn,Chevy Chase,Burgess Meredith,35.076777,-106.525945
Foul Play,1978,Flood Building (870 Market Street),,Paramount Pictures,Paramount Pictures,Colin Higgins,Colin Higgins,Goldie Hawn,Chevy Chase,Burgess Meredith,37.78510585,-122.407217000402
Foul Play,1978,City Hall,"The dome of SF's City Hall is almost a foot taller than that of the US Capitol Building. In 1954, Joe DiMaggio and Marilyn Monroe married at the Beaux Arts-style building.",Paramount Pictures,Paramount Pictures,Colin Higgins,Colin Higgins,Goldie Hawn,Chevy Chase,Burgess Meredith,42.0494355,13.039210233090513
Foul Play,1978,California & Larkin Streets (Nob Hill),,Paramount Pictures,Paramount Pictures,Colin Higgins,Colin Higgins,Goldie Hawn,Chevy Chase,Burgess Meredith,37.79091,-122.4188829
Foul Play,1978,"Asian Art Museum (200 Larkin Street, Civic Center)",The Dalai Lama opened an exhibition on Wisdom and Compassion at the museum in 1991.,Paramount Pictures,Paramount Pictures,Colin Higgins,Colin Higgins,Goldie Hawn,Chevy Chase,Burgess Meredith,37.7802891,-122.41597282351437
Foul Play,1978,430 Vallejo Street (Telegraph Hill),,Paramount Pictures,Paramount Pictures,Colin Higgins,Colin Higgins,Goldie Hawn,Chevy Chase,Burgess Meredith,37.79926785,-122.40464631518236
Foul Play,1978,24th and Castro Streets (Noe Valley),,Paramount Pictures,Paramount Pictures,Colin Higgins,Colin Higgins,Goldie Hawn,Chevy Chase,Burgess Meredith,37.7510912,-122.434191
Invasion of the Body Snatchers,1978,Pier 33 (Embarcadero),,Solofilm,United Artists,Philip Kaufman,Jack Finney,Donald Sutherland,Jeff Goldblum,Brooke Adams,37.8064959,-122.4054805
Invasion of the Body Snatchers,1978,United Nations Plaza (Civic Center),United Nations Plaza was built in 1975 and across its walkways are white lines into which the preamble to the preamble of the UN charter is carved.,Solofilm,United Artists,Philip Kaufman,Jack Finney,Donald Sutherland,Jeff Goldblum,Brooke Adams,37.780161250000006,-122.41377765047454
Invasion of the Body Snatchers,1978,Lafayette Park (Pacific Heights),,Solofilm,United Artists,Philip Kaufman,Jack Finney,Donald Sutherland,Jeff Goldblum,Brooke Adams,37.7914545,-122.42786628219972
Invasion of the Body Snatchers,1978,City Hall,"The dome of SF's City Hall is almost a foot taller than that of the US Capitol Building. In 1954, Joe DiMaggio and Marilyn Monroe married at the Beaux Arts-style building.",Solofilm,United Artists,Philip Kaufman,Jack Finney,Donald Sutherland,Jeff Goldblum,Brooke Adams,42.0494355,13.039210233090513
Invasion of the Body Snatchers,1978,Chinatown,"First established in the mid-19th Century, SF's Chinatown is the oldest and largest Chinatown in the US.",Solofilm,United Artists,Philip Kaufman,Jack Finney,Donald Sutherland,Jeff Goldblum,Brooke Adams,40.7164913,-73.9962504
Invasion of the Body Snatchers,1978,Broadway Tunnel (Russian Hill),,Solofilm,United Artists,Philip Kaufman,Jack Finney,Donald Sutherland,Jeff Goldblum,Brooke Adams,37.796776300000005,-122.41483791086031
Invasion of the Body Snatchers,1978,"Bimbo's 365 Club (1025 Columbus Avenue, North Beach)",,Solofilm,United Artists,Philip Kaufman,Jack Finney,Donald Sutherland,Jeff Goldblum,Brooke Adams,37.803730650000006,-122.41564579506286
Invasion of the Body Snatchers,1978,32 Napier Lane,,Solofilm,United Artists,Philip Kaufman,Jack Finney,Donald Sutherland,Jeff Goldblum,Brooke Adams,37.802576,-122.4038551220318
Invasion of the Body Snatchers,1978,1227 Montgomery Street (Telegraph Hill),,Solofilm,United Artists,Philip Kaufman,Jack Finney,Donald Sutherland,Jeff Goldblum,Brooke Adams,37.80047455,-122.4045384692372
Superman,1978,Golden Gate Bridge,"With 23 miles of ladders and 300,000 rivets in each tower, the Golden Gate Bridge was the world's longest span when it opened in 1937.",Dovemead Films,Warner Bros. Pictures,Richard Donner,Jerry Siegel,Christopher Reeve,Gene Hackman,Marlon Brando,37.81990665,-122.47858000733174
Escape From Alcatraz,1979,Alcatraz Island,Alcatraz Island was a military fort before it became a prison.,Paramount Pictures,Paramount Pictures,Donald Siegel,Richard Tuggle,Clint Eastwood,Patrick McGoohan,Robert Blossom,37.82672135,-122.42275899441964
Time After Time,1979,Lombard & Laguna Streets (Marina District),,Orion Pictures Corp.,Columbia Broadcasting System (CBS),Nicholas Meyer,Karl Alexander,Malcolm McDowell,Mary Steenburgen,David Warner,37.8003464,-122.431295
Time After Time,1979,Lombard & Fillmore Streets (Marina District),,Orion Pictures Corp.,Columbia Broadcasting System (CBS),Nicholas Meyer,Karl Alexander,Malcolm McDowell,Mary Steenburgen,David Warner,37.799757,-122.435192
Time After Time,1979,Lombard & Divisadero Streets (Marina District),,Orion Pictures Corp.,Columbia Broadcasting System (CBS),Nicholas Meyer,Karl Alexander,Malcolm McDowell,Mary Steenburgen,David Warner,37.7988819,-122.4428431
Time After Time,1979,Justin Herman Plaza,,Orion Pictures Corp.,Columbia Broadcasting System (CBS),Nicholas Meyer,Karl Alexander,Malcolm McDowell,Mary Steenburgen,David Warner,37.79489675,-122.39494665197049
Time After Time,1979,Golden Gate Park,Golden Gate Park is similar in shape but 20% larger than New York's Central Park.,Orion Pictures Corp.,Columbia Broadcasting System (CBS),Nicholas Meyer,Karl Alexander,Malcolm McDowell,Mary Steenburgen,David Warner,37.7693681,-122.48218371117709
Time After Time,1979,Golden Gate Bridge,"With 23 miles of ladders and 300,000 rivets in each tower, the Golden Gate Bridge was the world's longest span when it opened in 1937.",Orion Pictures Corp.,Columbia Broadcasting System (CBS),Nicholas Meyer,Karl Alexander,Malcolm McDowell,Mary Steenburgen,David Warner,37.81990665,-122.47858000733174
Time After Time,1979,Chestnut & Divisadero Streets (Marina District),,Orion Pictures Corp.,Columbia Broadcasting System (CBS),Nicholas Meyer,Karl Alexander,Malcolm McDowell,Mary Steenburgen,David Warner,37.8001268,-122.4429891
Time After Time,1979,2340 Francisco Street,,Orion Pictures Corp.,Columbia Broadcasting System (CBS),Nicholas Meyer,Karl Alexander,Malcolm McDowell,Mary Steenburgen,David Warner,37.8010558,-122.44390298993106
Time After Time,1979,United Nations Plaza (Civic Center),United Nations Plaza was built in 1975 and across its walkways are white lines into which the preamble to the preamble of the UN charter is carved.,Orion Pictures Corp.,Columbia Broadcasting System (CBS),Nicholas Meyer,Karl Alexander,Malcolm McDowell,Mary Steenburgen,David Warner,37.780161250000006,-122.41377765047454
Time After Time,1979,Palace of Fine Arts (3301 Lyon Street),"The original Palace was built for the 1915 Panama-Pacific Exposition, and completely destroyed in 1964. It was rebuilt in 1965.",Orion Pictures Corp.,Columbia Broadcasting System (CBS),Nicholas Meyer,Karl Alexander,Malcolm McDowell,Mary Steenburgen,David Warner,37.80291855,-122.44840286435333
Time After Time,1979,Marina Green (Marina District),"Before the 1906 earthquake, the land on which Marina Green sits was a tidal marsh, and rubble from the earthquake was dumped on the site. However, the site was filled in to provide land for the 1915 Panama-Pacific Exhibition.",Orion Pictures Corp.,Columbia Broadcasting System (CBS),Nicholas Meyer,Karl Alexander,Malcolm McDowell,Mary Steenburgen,David Warner,37.8066027,-122.4391165857657
Can't Stop the Music,1980,101 Henry Adams Place,,EMI Films,Associated Film Distribution (AFD),Nancy Walker,Allan Carr,Ray Simpson,David Hodo,Felipe Rose,40.957955,-91.551997
Heart Beat,1980,San Francisco Art Institute (800 Chestnut Street),,Orion Pictures Corporation,Orion Pictures Corporation,John Byrum,John Byrum,Nick Nolte,Sissy Spacek,John Heard,37.8036908,-122.41709246802591
Heart Beat,1980,Washington Square Bar & Grill (1707 Powell),,Orion Pictures Corporation,Orion Pictures Corporation,John Byrum,John Byrum,Nick Nolte,Sissy Spacek,John Heard,37.8004678,-122.4110417
Serial,1980,Ferry Building,"Every hour and half-hour, the clock bell atop the Ferry Building chimes portions of the Westminster Quarters.",Paramount Pictures,Paramount Pictures,Bill Persky,Rich Eustis,Martin Mull,Tuesday Weld,,37.7947815,-122.393678
The Competition,1980,Pier 39,,Columbia Pictures Corporation,American Broadcasting Company (ABC),Joel Oliansky,Joel Oliansky,Richard Dreyfuss,Amy Irving,Lee Remick,37.8086301,-122.40979
Chu Chu and the Philly Flash,1981,"Fairmont Hotel (950 Mason Street, Nob Hill)","In 1945 the Fairmont hosted the United Nations Conference on International Organization as delegates arrived to draft a charter for the organization. The U.S. Secretary of State, Edward Stettinius drafted the charter in the hotel's Garden Room.",Melvin Simon Productions,Columbia Broadcasting System (CBS),David Lowell Rich,Barbara Dana,Alan Arkin,Carol Burnett,,37.7923686,-122.41003009790424
Street Music,1981,,,Pacificon Films,Specialty Films,Jenny Bowen,Jenny Bowen,Elizabeth Daily,Larry Breeding,Ned Glass,44.933143,7.540121
48 Hours,1982,,,Paramount Pictures,Paramount Pictures,Walter Hill,Walter Hill,Nick Nolte,Eddie Murphy,Annette O'Toole,44.933143,7.540121
Shoot the Moon,1982,"Fairmont Hotel (950 Mason Street, Nob Hill)","In 1945 the Fairmont hosted the United Nations Conference on International Organization as delegates arrived to draft a charter for the organization. The U.S. Secretary of State, Edward Stettinius drafted the charter in the hotel's Garden Room.",Metro-Goldwyn-Mayer (MGM),Metro-Goldwyn-Mayer (MGM),Alan Parker,Bo Goldman,Albert Finney,Diane Keaton,,37.7923686,-122.41003009790424
Star Trek II : The Wrath of Khan,1982,Golden Gate Park,,Paramount Pictures,Paramount Pictures,Nicholas Meyer,Jack B. Sowards,William Shatner,Leonard Nimoy,George Takei,37.7693681,-122.48218371117709
Sudden Impact,1983,Mt. Davidson,Mt. Davidson is highest point in San Francisco (938 feet).,Warner Bros. Pictures,Warner Bros. Pictures,Clint Eastwood,Harry Julian Fink,Clint Eastwood,Sondra Locke,Pat Hingle,37.7382643,-122.4533047
Sudden Impact,1983,Hall of Justice (850 Bryant Street),,Warner Bros. Pictures,Warner Bros. Pictures,Clint Eastwood,Harry Julian Fink,Clint Eastwood,Sondra Locke,Pat Hingle,37.77513815,-122.40427695123522
Sudden Impact,1983,Ferry Plaza,"Every hour and half-hour, the clock bell atop the Ferry Building chimes portions of the Westminster Quarters.",Warner Bros. Pictures,Warner Bros. Pictures,Clint Eastwood,Harry Julian Fink,Clint Eastwood,Sondra Locke,Pat Hingle,37.7953909,-122.3917998
Sudden Impact,1983,"Fairmont Hotel (950 Mason Street, Nob Hill)","In 1945 the Fairmont hosted the United Nations Conference on International Organization as delegates arrived to draft a charter for the organization. The U.S. Secretary of State, Edward Stettinius drafted the charter in the hotel's Garden Room.",Warner Bros. Pictures,Warner Bros. Pictures,Clint Eastwood,Harry Julian Fink,Clint Eastwood,Sondra Locke,Pat Hingle,37.7923686,-122.41003009790424
Sudden Impact,1983,Civic Center Plaza,,Warner Bros. Pictures,Warner Bros. Pictures,Clint Eastwood,Harry Julian Fink,Clint Eastwood,Sondra Locke,Pat Hingle,37.3481185,-121.9006668523511
Sudden Impact,1983,The Embarcadero/Ferry Building,"Every hour and half-hour, the clock bell atop the Ferry Building chimes portions of the Westminster Quarters.",Warner Bros. Pictures,Warner Bros. Pictures,Clint Eastwood,Harry Julian Fink,Clint Eastwood,Sondra Locke,Pat Hingle,37.7947815,-122.393678
The Right Stuff,1983,Cow Palace,"Supposedly, the Cow Palace's name derives from a newspaper editorial in which the writer wonders whether the soon-to-be-built structure for livestock was a ""palace for cows"".",The Ladd Company,The Ladd Company,Philip Kaufman,Philip Kaufman,Sam Shepard,Scott Glenn,Ed Harris,37.7061821,-122.42021022011464
The Right Stuff,1983,City Hall,"The dome of SF's City Hall is almost a foot taller than that of the US Capitol Building. In 1954, Joe DiMaggio and Marilyn Monroe married at the Beaux Arts-style building.",The Ladd Company,The Ladd Company,Philip Kaufman,Philip Kaufman,Sam Shepard,Scott Glenn,Ed Harris,42.0494355,13.039210233090513
The Right Stuff,1983,Financial District,,The Ladd Company,The Ladd Company,Philip Kaufman,Philip Kaufman,Sam Shepard,Scott Glenn,Ed Harris,40.7076681,-74.009271
Hard to Hold,1984,"Fairmont Hotel (950 Mason Street, Nob Hill)","In 1945 the Fairmont hosted the United Nations Conference on International Organization as delegates arrived to draft a charter for the organization. The U.S. Secretary of State, Edward Stettinius drafted the charter in the hotel's Garden Room.",Universal Pictures,Universal Pictures,Larry Peerce,"Thomas Hedley, Jr.",Rick Springfield,,,37.7923686,-122.41003009790424
The Times of Harvey Milk,1984,The Castro,"From 1910-1920 the Castro was called ""Little Scandinavia"" because of its high concentration of residents of Scandinavian ancestry.",UCLA Film and Television Archive,TC Films International,Rob Epstein,Rob Epstein,Harvey Milk,Harvey Firestein,Anne Kronenberg,37.7608561,-122.434957
The Woman In Red,1984,Palace of Fine Arts (3301 Lyon Street),"The original Palace was built for the 1915 Panama-Pacific Exposition, and completely destroyed in 1964. It was rebuilt in 1965.",Orion Pictures Corp.,MGM Home Entertainment,Gene Wilder,Jean Loup Dabadie & Yves Robert,Gene Wilder,Charles Grodin,,37.80291855,-122.44840286435333
Thief of Hearts,1984,,,Paramount Pictures,Paramount Pictures,Douglas Day Stewart,Douglas Day Stewart,Steven Bauer,David Caruso,Barbara Williams,44.933143,7.540121
A View to a Kill,1985,City Hall,"The dome of SF's City Hall is almost a foot taller than that of the US Capitol Building. In 1954, Joe DiMaggio and Marilyn Monroe married at the Beaux Arts-style building.",Metro-Goldwyn Mayer,MGM/UA Entertainment Company,John Glen,Richard Maibaum,Roger Moore,Christopher Walken,Tanya Roberts,42.0494355,13.039210233090513
A View to a Kill,1985,Port of San Francisco,,Metro-Goldwyn Mayer,MGM/UA Entertainment Company,John Glen,Richard Maibaum,Roger Moore,Christopher Walken,Tanya Roberts,37.74199295,-122.37478588725294
A View to a Kill,1985,Golden Gate Bridge,"With 23 miles of ladders and 300,000 rivets in each tower, the Golden Gate Bridge was the world's longest span when it opened in 1937.",Metro-Goldwyn Mayer,MGM/UA Entertainment Company,John Glen,Richard Maibaum,Roger Moore,Christopher Walken,Tanya Roberts,37.81990665,-122.47858000733174
A View to a Kill,1985,Potrero Hill,The most crooked street in San Francisco is actually Potrero Hill's Vermont Street between 20th St & 22nd St.,Metro-Goldwyn Mayer,MGM/UA Entertainment Company,John Glen,Richard Maibaum,Roger Moore,Christopher Walken,Tanya Roberts,37.7565834,-122.3991374
A View to a Kill,1985,Chinatown,"First established in the mid-19th Century, SF's Chinatown is the oldest and largest Chinatown in the US.",Metro-Goldwyn Mayer,MGM/UA Entertainment Company,John Glen,Richard Maibaum,Roger Moore,Christopher Walken,Tanya Roberts,40.7164913,-73.9962504
A View to a Kill,1985,Van Ness Avenue,,Metro-Goldwyn Mayer,MGM/UA Entertainment Company,John Glen,Richard Maibaum,Roger Moore,Christopher Walken,Tanya Roberts,34.0986921,-118.3157862
Dim Sum: A Little Bit of Heart,1985,San Francisco International Airport,SFO has a museum dedicated to aviation history.,CIM,Orion Classics,Wayne Wang,Terrel Seltzer,Laureen Chew,Kim Chew,Victor Wong,37.622452,-122.38407160781362
Dim Sum: A Little Bit of Heart,1985,Chinatown,"First established in the mid-19th Century, SF's Chinatown is the oldest and largest Chinatown in the US.",CIM,Orion Classics,Wayne Wang,Terrel Seltzer,Laureen Chew,Kim Chew,Victor Wong,40.7164913,-73.9962504
Jagged Edge,1985,Golden Gate Bridge,"With 23 miles of ladders and 300,000 rivets in each tower, the Golden Gate Bridge was the world's longest span when it opened in 1937.",Columbia Pictures Corp.,Columbia Pictures,Richard Marquand,Joe Eszterhas,Glenn Close,Jeff Bridges,Peter Coyote,37.81990665,-122.47858000733174
Jagged Edge,1985,City Hall,"The dome of SF's City Hall is almost a foot taller than that of the US Capitol Building. In 1954, Joe DiMaggio and Marilyn Monroe married at the Beaux Arts-style building.",Columbia Pictures Corp.,Columbia Pictures,Richard Marquand,Joe Eszterhas,Glenn Close,Jeff Bridges,Peter Coyote,42.0494355,13.039210233090513
Maxie,1985,"Asian Art Museum (200 Larkin Street, Civic Center)",The Dalai Lama opened an exhibition on Wisdom and Compassion at the museum in 1991.,Elsboy Entertainment,Orion Pictures Corporation,Paul Aaron,Patricia Resnick,Glenn Close,Mandy Patinkin,Ruth Gordon,37.7802891,-122.41597282351437
Big Trouble in Little China,1986,,,Twentieth Century Fox Film Corporation,Twentieth Century Fox Film Corporation,John Carpenter,Gary Goldman,Kurt Russell,Kim Catrall,James Hong,44.933143,7.540121
Quicksilver,1986,Pacific Stock Exchange,,Columbia Pictures Corporation,Columbia Pictures,Thomas Michael Donnelly,Thomas Michael Donnelly,Kevin Bacon,Jami Gertz,Paul Rodriguez,37.7918733,-122.4010821
Star Trek IV: The Voyage Home,1986,"West Harbor, Marina District",,Paramount Pictures,Paramount Pictures,Leonard Nimoy,Steve Meerson,William Shatner,Leonard Nimoy,George Takei,32.709333,-117.1651667
Star Trek IV: The Voyage Home,1986,North Beach,,Paramount Pictures,Paramount Pictures,Leonard Nimoy,Steve Meerson,William Shatner,Leonard Nimoy,George Takei,37.8011749,-122.4090021
Star Trek IV: The Voyage Home,1986,"Marina Green, Marina District","Before the 1906 earthquake, the land on which Marina Green sits was a tidal marsh, and rubble from the earthquake was dumped on the site. However, the site was filled in to provide land for the 1915 Panama-Pacific Exhibition.",Paramount Pictures,Paramount Pictures,Leonard Nimoy,Steve Meerson,William Shatner,Leonard Nimoy,George Takei,37.8066027,-122.4391165857657
Star Trek IV: The Voyage Home,1986,Kearny & Pacific Streets,,Paramount Pictures,Paramount Pictures,Leonard Nimoy,Steve Meerson,William Shatner,Leonard Nimoy,George Takei,37.797452,-122.405314
Star Trek IV: The Voyage Home,1986,Golden Gate Park,,Paramount Pictures,Paramount Pictures,Leonard Nimoy,Steve Meerson,William Shatner,Leonard Nimoy,George Takei,37.7693681,-122.48218371117709
Star Trek IV: The Voyage Home,1986,Golden Gate Bridge,"With 23 miles of ladders and 300,000 rivets in each tower, the Golden Gate Bridge was the world's longest span when it opened in 1937.",Paramount Pictures,Paramount Pictures,Leonard Nimoy,Steve Meerson,William Shatner,Leonard Nimoy,George Takei,37.81990665,-122.47858000733174
Burglar,1987,1627 Haight Street,,Warner Bros. Pictures,Warner Bros. Pictures,Hugh Wilson,Joseph Loeb III,Whoopi Goldberg,Bobcat Goldwait,,37.76964445833333,-122.449127125
Burglar,1987,1400 18th Street,,Warner Bros. Pictures,Warner Bros. Pictures,Hugh Wilson,Joseph Loeb III,Whoopi Goldberg,Bobcat Goldwait,,37.7626798,-122.3967027
Innerspace,1987,Telegraph Hill,"Largely untouched by the 1906 earthquake, Telegraph Hill has the most pre-1870 buildings in the city.",Amblin Entertainment,Warner Bros. Pictures,Joe Dante,Chip Proser,Dennis Quaid,Martin Short,Meg Ryan,37.800785,-122.4040908
Innerspace,1987,Golden Gate Bridge,"With 23 miles of ladders and 300,000 rivets in each tower, the Golden Gate Bridge was the world's longest span when it opened in 1937.",Amblin Entertainment,Warner Bros. Pictures,Joe Dante,Chip Proser,Dennis Quaid,Martin Short,Meg Ryan,37.81990665,-122.47858000733174
Beaches,1988,,,Silver Screen Partners IV,Columbia Broadcasting System,Garry Marshall,Mary Agnes Donoghue,Bette Midler,Barbara Hershey,John Heard,44.933143,7.540121
The Dead Pool,1988,Washington Square Park (North Beach),"Washington Square Park is not actually a square, as it has 5 sides. North Beach is not a beach. The statue in the Park is Ben Franklin, not George Washington.",Warner Bros. Pictures,Warner Bros. Pictures,Buddy Van Horn,Harry Julian Fink,Clint Eastwood,Liam Neeson,Patricia Clarkson,37.800864700000005,-122.41010153142976
The Dead Pool,1988,Portsmouth Square (Chinatown),,Warner Bros. Pictures,Warner Bros. Pictures,Buddy Van Horn,Harry Julian Fink,Clint Eastwood,Liam Neeson,Patricia Clarkson,37.79483365,-122.40532995
The Dead Pool,1988,Pierce & California Streets (Pacific Heights),,Warner Bros. Pictures,Warner Bros. Pictures,Buddy Van Horn,Harry Julian Fink,Clint Eastwood,Liam Neeson,Patricia Clarkson,37.7884541,-122.4367799
The Dead Pool,1988,Pier 3 (The Embarcadero),,Warner Bros. Pictures,Warner Bros. Pictures,Buddy Van Horn,Harry Julian Fink,Clint Eastwood,Liam Neeson,Patricia Clarkson,37.8090585,-122.41123209032946
The Dead Pool,1988,Hall of Justice (850 Bryant Street),,Warner Bros. Pictures,Warner Bros. Pictures,Buddy Van Horn,Harry Julian Fink,Clint Eastwood,Liam Neeson,Patricia Clarkson,37.77513815,-122.40427695123522
The Dead Pool,1988,Folsom & Essex Streets,,Warner Bros. Pictures,Warner Bros. Pictures,Buddy Van Horn,Harry Julian Fink,Clint Eastwood,Liam Neeson,Patricia Clarkson,37.78624605,-122.39548892061488
The Dead Pool,1988,Carl & Cole Streets (Cole Valley),,Warner Bros. Pictures,Warner Bros. Pictures,Buddy Van Horn,Harry Julian Fink,Clint Eastwood,Liam Neeson,Patricia Clarkson,37.7658084,-122.4499754
The Dead Pool,1988,550 El Camino Del Mar (Seacliff),,Warner Bros. Pictures,Warner Bros. Pictures,Buddy Van Horn,Harry Julian Fink,Clint Eastwood,Liam Neeson,Patricia Clarkson,37.78755685,-122.48995538212412
The Dead Pool,1988,23rd & Iowa Streets (Dogpatch),,Warner Bros. Pictures,Warner Bros. Pictures,Buddy Van Horn,Harry Julian Fink,Clint Eastwood,Liam Neeson,Patricia Clarkson,37.7575917,-122.3921722
The Dead Pool,1988,22nd & Wisconsin Streets (Potrero Hill),,Warner Bros. Pictures,Warner Bros. Pictures,Buddy Van Horn,Harry Julian Fink,Clint Eastwood,Liam Neeson,Patricia Clarkson,37.757219,-122.3988453
The Dead Pool,1988,20th & De Haro Streets (Potrero Hill),,Warner Bros. Pictures,Warner Bros. Pictures,Buddy Van Horn,Harry Julian Fink,Clint Eastwood,Liam Neeson,Patricia Clarkson,37.7656814,-122.4016818
The Dead Pool,1988,1954 Mason Street (North Beach),,Warner Bros. Pictures,Warner Bros. Pictures,Buddy Van Horn,Harry Julian Fink,Clint Eastwood,Liam Neeson,Patricia Clarkson,37.8016334375,-122.4126910625
The Last of the Gladiators,1988,,,Twin Tower Enterprises,Evel Videos,Martin Jay Sadoff,Martin Jay Sadoff,Evel Knievel,,,44.933143,7.540121
The Presidio,1988,Sansome Street (The Embarcadero),,Paramount Pictures,Paramount Pictures,Peter Hyams,Larry Ferguson,Sean Connery,Mark Harmon,Meg Ryan,37.8048162,-122.4028944
The Presidio,1988,Market & 2nd Streets,,Paramount Pictures,Paramount Pictures,Peter Hyams,Larry Ferguson,Sean Connery,Mark Harmon,Meg Ryan,39.9499946,-75.1438048
The Presidio,1988,Golden Gate Bridge,"With 23 miles of ladders and 300,000 rivets in each tower, the Golden Gate Bridge was the world's longest span when it opened in 1937.",Paramount Pictures,Paramount Pictures,Peter Hyams,Larry Ferguson,Sean Connery,Mark Harmon,Meg Ryan,37.81990665,-122.47858000733174
The Presidio,1988,Ferry Building,"Every hour and half-hour, the clock bell atop the Ferry Building chimes portions of the Westminster Quarters.",Paramount Pictures,Paramount Pictures,Peter Hyams,Larry Ferguson,Sean Connery,Mark Harmon,Meg Ryan,37.7947815,-122.393678
The Presidio,1988,Coit Tower,"The Tower was funded by a gift bequeathed by Lillie Hitchcock Coit, a socialite who reportedly liked to chase fires. Though the tower resembles a firehose nozzle, it was not designed this way.",Paramount Pictures,Paramount Pictures,Peter Hyams,Larry Ferguson,Sean Connery,Mark Harmon,Meg Ryan,37.80237905,-122.40583435461312
The Presidio,1988,Civic Center Plaza,,Paramount Pictures,Paramount Pictures,Peter Hyams,Larry Ferguson,Sean Connery,Mark Harmon,Meg Ryan,37.3481185,-121.9006668523511
The Presidio,1988,200 Block of Sansome Street (Financial District),,Paramount Pictures,Paramount Pictures,Peter Hyams,Larry Ferguson,Sean Connery,Mark Harmon,Meg Ryan,37.792264,-122.4007622
Tucker: The Man and His Dream,1988,City Hall,"The dome of SF's City Hall is almost a foot taller than that of the US Capitol Building. In 1954, Joe DiMaggio and Marilyn Monroe married at the Beaux Arts-style building.",Lucasfilm,Paramount Pictures,Francis Ford Coppola,Arnold Schulman,Jeff Bridges,Joan Allen,Marin Landau,42.0494355,13.039210233090513
Common Threads: Stories From the Quilt,1989,The Castro,"From 1910-1920 the Castro was called ""Little Scandinavia"" because of its high concentration of residents of Scandinavian ancestry.",Home Box Office (HBO),Direct Cinema Limited,Rob Epstein,Jeffrey Friedman,Sara Lewinstein,David Mandell,,37.7608561,-122.434957
Indiana Jones and the Last Crusade,1989,Administration Building (Treasure Island),"An artificial island, Treasure Island was created for the 1939 Golden Gate International Exposition, and is named after the novel by Robert Louis Stevenson, a one-time San Francisco resident.",Paramount Pictures,Paramount Pictures,Steven Spielberg,Jeffrey Boam,Harrison Ford,Sean Connery,,37.817412,-122.3712223
True Believer,1989,,,Columbia Pictures Corporation,Columbia Pictures,Joseph Ruben,Wesley Strick,James Woods,"Robert Downey, Jr.",,44.933143,7.540121
Another 48 Hours,1990,,,Eddie Murphy Productions,Paramount Pictures,Walter Hill,Walter Hill,Eddie Murphy,Nick Nolte,,44.933143,7.540121
Pacific Heights,1990,Financial District,,Morgan Creek Productions,Twentieth Century Fox Film Corporation,John Schlesinger,Daniel Pyne,Melanie Griffith,Matthew Modine,,40.7076681,-74.009271
Pacific Heights,1990,Chinatown,"First established in the mid-19th Century, SF's Chinatown is the oldest and largest Chinatown in the US.",Morgan Creek Productions,Twentieth Century Fox Film Corporation,John Schlesinger,Daniel Pyne,Melanie Griffith,Matthew Modine,,40.7164913,-73.9962504
Pretty Woman,1990,,,Touchstone Pictures,Buena Vista Pictures,Garry Marshall,J.F. Lawton,Richard Gere,Julia Roberts,,44.933143,7.540121
Class Action,1991,City Hall,"The dome of SF's City Hall is almost a foot taller than that of the US Capitol Building. In 1954, Joe DiMaggio and Marilyn Monroe married at the Beaux Arts-style building.",Interscope Communications,Twentieth Century Fox Film Corp.,Michael Apted,Carolyn Shelby,Gene Hackman,Mary Elizabeth Mastrantonio,,42.0494355,13.039210233090513
Class Action,1991,Bix Restaurant (56 Gold Street),,Interscope Communications,Twentieth Century Fox Film Corp.,Michael Apted,Carolyn Shelby,Gene Hackman,Mary Elizabeth Mastrantonio,,37.7968463,-122.4029264
Dying Young,1991,,,Twentieth Century Fox Corporation,Twentieth Century Fox Corporation,Joel Schumacher,Richard Friedenberg,Julia Roberts,Campbell Scott,,44.933143,7.540121
Shattered,1991,,,Capella International,Metro-Goldwyn-Mayer,Wolfgang Petersen,Wolfgang Petersen,Tom Berenger,Bob Hoskins,,44.933143,7.540121
Star Trek VI: The Undiscovered Country,1991,Golden Gate Bridge,"With 23 miles of ladders and 300,000 rivets in each tower, the Golden Gate Bridge was the world's longest span when it opened in 1937.",Paramount Pictures,Paramount Pictures,Nicholas Meyer,Nimoy,William Shatner,Leonard Nimoy,George Takei,37.81990665,-122.47858000733174
The Doctor,1991,,,Silver Screen Partners IV,Buena Vista Pictures,Randa Haines,Robert Caswell,William Hurt,Christine Lahti,,44.933143,7.540121
The Doors,1991,,,Bill Graham Films,TriStar Pictures,Oliver Stone,J. Randal Johnson,Val Kilmer,Meg Ryan,,44.933143,7.540121
Basic Instinct,1992,Yerba Buena Center for the Arts,,Carolco Pictures,TriStar Pictures,Paul Verhoeven,Joe Eszterhas,Michael Douglas,Sharon Stone,George Dzundza,37.7850594,-122.4012672673096
Basic Instinct,1992,Tosca Café (242 Columbus Avenue),,Carolco Pictures,TriStar Pictures,Paul Verhoeven,Joe Eszterhas,Michael Douglas,Sharon Stone,George Dzundza,37.7975454,-122.4059615
Basic Instinct,1992,Kearney Street (Telegraph Hill),,Carolco Pictures,TriStar Pictures,Paul Verhoeven,Joe Eszterhas,Michael Douglas,Sharon Stone,George Dzundza,37.79540985,-122.4046885584361
Basic Instinct,1992,Hall of Justice (850 Bryant Street),,Carolco Pictures,TriStar Pictures,Paul Verhoeven,Joe Eszterhas,Michael Douglas,Sharon Stone,George Dzundza,37.77513815,-122.40427695123522
Basic Instinct,1992,2930 Vallejo Street,,Carolco Pictures,TriStar Pictures,Paul Verhoeven,Joe Eszterhas,Michael Douglas,Sharon Stone,George Dzundza,37.79412925,-122.44567096829788
Basic Instinct,1992,Chinatown,"First established in the mid-19th Century, SF's Chinatown is the oldest and largest Chinatown in the US.",Carolco Pictures,TriStar Pictures,Paul Verhoeven,Joe Eszterhas,Michael Douglas,Sharon Stone,George Dzundza,40.7164913,-73.9962504
Basic Instinct,1992,Gibb Street (Chinatown),,Carolco Pictures,TriStar Pictures,Paul Verhoeven,Joe Eszterhas,Michael Douglas,Sharon Stone,George Dzundza,37.7960465,-122.404306
Basic Instinct,1992,1158-70 Montgomery Street,,Carolco Pictures,TriStar Pictures,Paul Verhoeven,Joe Eszterhas,Michael Douglas,Sharon Stone,George Dzundza,41.6996204,-73.92908163711542
Basic Instinct,1992,2104 Broadway,,Carolco Pictures,TriStar Pictures,Paul Verhoeven,Joe Eszterhas,Michael Douglas,Sharon Stone,George Dzundza,37.8101172,-122.2673504
Final Analysis,1992,City Hall,"The dome of SF's City Hall is almost a foot taller than that of the US Capitol Building. In 1954, Joe DiMaggio and Marilyn Monroe married at the Beaux Arts-style building.",Warner Bros. Pictures,Warner Bros. Pictures,Phil Joanou,Robert Berger,Richard Gere,Kim Basinger,,42.0494355,13.039210233090513
Final Analysis,1992,Bix Restaurant (56 Gold Street),,Warner Bros. Pictures,Warner Bros. Pictures,Phil Joanou,Robert Berger,Richard Gere,Kim Basinger,,37.7968463,-122.4029264
Raising Cain,1992,,,Pacific Western,Universal Pictures,Brian DePalma,Brian DePalma,John Lithgow,,,44.933143,7.540121
Sneakers,1992,The Embarcadero,,Universal Pictures,Universal Pictures,Phil Alden Robinson,Walter Parkes,Sydney Poitier,Robert Redford,,37.8048548,-122.4031918
Vegas in Space,1992,Corona Heights Park,,Troma Entertainment,MCA/Universal Home Video,Phillip R. Ford,Doris Fish,Doris Fish,Miss X,Ginger Quest,37.76477615,-122.43934323780866
Vegas in Space,1992,544 Natoma (SOMA),,Troma Entertainment,MCA/Universal Home Video,Phillip R. Ford,Doris Fish,Doris Fish,Miss X,Ginger Quest,37.77955305,-122.40881093758368
Vegas in Space,1992,3567 18th Street,,Troma Entertainment,MCA/Universal Home Video,Phillip R. Ford,Doris Fish,Doris Fish,Miss X,Ginger Quest,37.76142225,-122.42303156609604
Fearless,1993,400 Montgomery Street,,Spring Creek Productions,Warner Bros. Pictures,Peter Weir,Rafael Yglesias,Jeff Bridges,Isabella Rosellini,Rosie Perez,40.6652756,-73.951369315
Fearless,1993,Folsom Street & Embarcadero,,Spring Creek Productions,Warner Bros. Pictures,Peter Weir,Rafael Yglesias,Jeff Bridges,Isabella Rosellini,Rosie Perez,37.787518,-122.39346225
Fearless,1993,Kohl Building (400 Montgomery Street),,Spring Creek Productions,Warner Bros. Pictures,Peter Weir,Rafael Yglesias,Jeff Bridges,Isabella Rosellini,Rosie Perez,37.7931471,-122.40256239037438
Fearless,1993,Bank of America Building (555 California Street),"The Bank of America Building was the tallest building on the West Coast from 1969-1972, when it was surpassed by the TransAmerica Pyramid. Today, the Bank of America building is the 5th tallest building on the West Coast.",Spring Creek Productions,Warner Bros. Pictures,Peter Weir,Rafael Yglesias,Jeff Bridges,Isabella Rosellini,Rosie Perez,37.7921033,-122.40374513697353
Fearless,1993,90 Gold Street,,Spring Creek Productions,Warner Bros. Pictures,Peter Weir,Rafael Yglesias,Jeff Bridges,Isabella Rosellini,Rosie Perez,40.7099124,-74.003988
Heart and Souls,1993,2810 Pacific Avenue,,Universal Pictures,Electric Parc,Tomas Gislason,Tomas Gislason,Jorgen Leth,,,37.79270125,-122.44208860113947
Heart and Souls,1993,War Memorial Opera House (401 Van Ness Avenue),In 1945 the United Nations had its first conference at The War Memorial Opera House.,Universal Pictures,Electric Parc,Tomas Gislason,Tomas Gislason,Jorgen Leth,,,37.7785697,-122.42093450339144
Joy Luck Club,1993,Hang Ah Alley (Chinatown),,Hollywood Pictures,National Broadcasting Company (NBC),Wayne Wang,Amy Tan,Kieu Chinh,Tsai Chin,France Nuyen,37.793481,-122.4074108
Joy Luck Club,1993,901 Union Street,,Hollywood Pictures,National Broadcasting Company (NBC),Wayne Wang,Amy Tan,Kieu Chinh,Tsai Chin,France Nuyen,40.67399225,-73.97368126695717
Joy Luck Club,1993,610 Rhode Island Street (Potrero Hill),,Hollywood Pictures,National Broadcasting Company (NBC),Wayne Wang,Amy Tan,Kieu Chinh,Tsai Chin,France Nuyen,37.76193095,-122.40256860523871
Joy Luck Club,1993,375 Laguna Honda Blvd.,,Hollywood Pictures,National Broadcasting Company (NBC),Wayne Wang,Amy Tan,Kieu Chinh,Tsai Chin,France Nuyen,37.7494814,-122.45729651523612
Joy Luck Club,1993,180 Manchester Street,,Hollywood Pictures,National Broadcasting Company (NBC),Wayne Wang,Amy Tan,Kieu Chinh,Tsai Chin,France Nuyen,37.7442056,-122.4143128
Mrs. Doubtfire,1993,516 Green Street,,Twentieth Century Fox Film Corporation,Twentieth Century Fox Film Corporation,Chris Columbus,Randi Mayem Singer,Robin Williams,Sally Field,Pierce Brosnan,51.5319071,0.037042732039333
Mrs. Doubtfire,1993,100 Embarcadero Street,,Twentieth Century Fox Film Corporation,Twentieth Century Fox Film Corporation,Chris Columbus,Randi Mayem Singer,Robin Williams,Sally Field,Pierce Brosnan,38.021745,-122.144555
Sister Act 2: Back in the Habit,1993,Coit Tower,"The Tower was funded by a gift bequeathed by Lillie Hitchcock Coit, a socialite who reportedly liked to chase fires. Though the tower resembles a firehose nozzle, it was not designed this way.",Touchstone Pictures,Buena Vista Pictures,Bill Duke,Joseph Howard,Whoopi Goldberg,Maggie Smith,,37.80237905,-122.40583435461312
So I Married an Axe Murderer,1993,Swedenborgian Church (2107 Lyon Street),,TriStar Pictures,TriStar Pictures,Thomas Schlamme,Robbie Fox,Mike Myers,Nancy Travis,,37.79041565,-122.44622985080252
So I Married an Axe Murderer,1993,Fog City Diner (1300 Battery Street),,TriStar Pictures,TriStar Pictures,Thomas Schlamme,Robbie Fox,Mike Myers,Nancy Travis,,37.8034359,-122.40185044353396
So I Married an Axe Murderer,1993,Edinburgh Castle (950 Geary Street),,TriStar Pictures,TriStar Pictures,Thomas Schlamme,Robbie Fox,Mike Myers,Nancy Travis,,37.7861199,-122.418945
So I Married an Axe Murderer,1993,Alcatraz Island,Alcatraz Island was a military fort before it became a prison.,TriStar Pictures,TriStar Pictures,Thomas Schlamme,Robbie Fox,Mike Myers,Nancy Travis,,37.82672135,-122.42275899441964
So I Married an Axe Murderer,1993,305 Hugo Street,,TriStar Pictures,TriStar Pictures,Thomas Schlamme,Robbie Fox,Mike Myers,Nancy Travis,,37.76511865306123,-122.46120410204082
The Nightmare Before Christmas,1993,,,Touchstone Pictures,Buena Vista Pictures,Henry Selick,Tim Burton,Danny Elfman,Catherine O'Hara,,44.933143,7.540121
Forrest Gump,1994,Palace of Fine Arts (3301 Lyon Street),"The original Palace was built for the 1915 Panama-Pacific Exposition, and completely destroyed in 1964. It was rebuilt in 1965.",Paramount Pictures,Paramount Pictures,Robert Zemeckis,Eric Roth,Tom Hanks,Robin Wright,,37.80291855,-122.44840286435333
Getting Even with Dad,1994,California & Grant Streets,,Metro-Goldwyn-Mayer (MGM),Metro-Goldwyn-Mayer (MGM),Howard Dutch,Tom S. Parker,Macaulay Culkin,Ted Danson,,33.9164628,-117.2741844
Getting Even with Dad,1994,140 Maiden Lane,,Metro-Goldwyn-Mayer (MGM),Metro-Goldwyn-Mayer (MGM),Howard Deutch,Tom S. Parker,Macaulay Culkin,Ted Danson,,37.8089751,-122.19735379362596
Getting Even with Dad,1994,"Neiman Marcus (150 Stockton Street, Union Square)",The City of Paris department store previously occupied the space that now houses Neiman Marcus. City of Paris' original rotunda and glass dome were incorporated into Neiman Marcus' design.,Metro-Goldwyn-Mayer (MGM),Metro-Goldwyn-Mayer (MGM),Howard Deutch,Tom S. Parker,Macaulay Culkin,Ted Danson,,37.78736295,-122.4059186080106
Golden Gate,1994,Ross Alley (Chinatown),Ross Alley is the oldest alley in San Francisco.,American Playhouse Theatrical Films,The Samuel Goldwyn Company,John Madden,David Henry Hwang,Matt Dillon,Joan Chen,,37.7955389,-122.407372
Golden Gate,1994,University of California Hastings College of the Law,,Metro-Goldwyn-Mayer (MGM),Metro-Goldwyn-Mayer (MGM),Howard Deutch,David Henry Hwang,Matt Dillon,Joan Chen,,37.7812409,-122.41628873712278
Golden Gate,1994,Golden Gate Bridge,"With 23 miles of ladders and 300,000 rivets in each tower, the Golden Gate Bridge was the world's longest span when it opened in 1937.",American Playhouse Theatrical Films,The Samuel Goldwyn Company,John Madden,David Henry Hwang,Matt Dillon,Joan Chen,,37.81990665,-122.47858000733174
Interview With The Vampire,1994,Ferry Building,"Every hour and half-hour, the clock bell atop the Ferry Building chimes portions of the Westminster Quarters.",Geffen Pictures,Geffen Pictures,Neil Jordan,Anne Rice,Brad Pitt,Christian Slater,Tom Cruise,37.7947815,-122.393678
Interview With The Vampire,1994,Golden Gate Bridge,"With 23 miles of ladders and 300,000 rivets in each tower, the Golden Gate Bridge was the world's longest span when it opened in 1937.",Geffen Pictures,Geffen Pictures,Neil Jordan,Anne Rice,Brad Pitt,Christian Slater,Tom Cruise,37.81990665,-122.47858000733174
Junior,1994,2552 Hyde Street,,Northern Lights Entertainment,Universal Pictures,Ivan Reitman,Kevin Wade,Arnold Schwarzenegger,Danny DeVito,Emma Thompson,37.8045651,-122.4199235
Junior,1994,United Nations Plaza (Civic Center),United Nations Plaza was built in 1975 and across its walkways are white lines into which the preamble to the preamble of the UN charter is carved.,Northern Lights Entertainment,Universal Pictures,Ivan Reitman,Kevin Wade,Arnold Schwarzenegger,Danny DeVito,Emma Thompson,37.780161250000006,-122.41377765047454
Junior,1994,"Fairmont Hotel (950 Mason Street, Nob Hill)",,Northern Lights Entertainment,Universal Pictures,Ivan Reitman,Kevin Wade,Arnold Schwarzenegger,Danny DeVito,Emma Thompson,37.7923686,-122.41003009790424
Junior,1994,Chinatown Gate,"Designed in 1970, the Chinatown Gate (aka the Dragon Gate) is based on ceremonial gates found in Chinese villages.",Northern Lights Entertainment,Universal Pictures,Ivan Reitman,Kevin Wade,Arnold Schwarzenegger,Danny DeVito,Emma Thompson,42.3511889,-71.05975148635245
Junior,1994,722 Steiner Street,,Northern Lights Entertainment,Universal Pictures,Ivan Reitman,Kevin Wade,Arnold Schwarzenegger,Danny DeVito,Emma Thompson,37.7764733,-122.43277782579484
Nina Takes a Lover,1994,,,Alan Jacobs Productions,Columbia TriStar Home Video,Alan Jacobs,Alan Jacobs,Laura San Giacomo,Paul Rhys,,44.933143,7.540121
When a Man Loves a Woman,1994,Spring Valley School (1451 Jackson Street),,Touchstone Pictures,Buena Vista Pictures,Luis Mandoki,Ronald Bass,Andy Garcia,Meg Ryan,,38.9741731,-94.4802308
Copycat,1995,Treasure Island,"An artificial island, Treasure Island was created for the 1939 Golden Gate International Exposition, and is named after the novel by Robert Louis Stevenson, a one-time San Francisco resident.",Regency Enterprises,Warner Bros. Pictures,Jon Amiel,Ann Biderman,Sigourney Weaver,Holly Hunter,,37.8233541,-122.37015310228703
Copycat,1995,Twin Peaks,"The 2nd highest point in SF after Mt. Davidson, Twin Peaks sit at the geographic center of SF. The native Ohlone people called the area “Los Pechos de la Chola” or ""Breasts of the Indian Maiden,"" but in the 19th Century when America took over the area, it was renamed ""Twin Peaks"".",Regency Enterprises,Warner Bros. Pictures,Jon Amiel,Ann Biderman,Sigourney Weaver,Holly Hunter,,37.75464,-122.44648
Copycat,1995,Alta Plaza Park,The park was originally a rock quarry and served as a campground for many survivors of the 1906 earthquake. The site was converted to a park in 1910.,Regency Enterprises,Warner Bros. Pictures,Jon Amiel,Ann Biderman,Sigourney Weaver,Holly Hunter,,37.79121525,-122.43769503865178
Copycat,1995,82 & 67 Rico Way (Marina District),,Regency Enterprises,Warner Bros. Pictures,Jon Amiel,Ann Biderman,Sigourney Weaver,Holly Hunter,,37.8049458,-122.4392897
Jade,1995,"Fairmont Hotel (950 Mason Street, Nob Hill)","In 1945 the Fairmont hosted the United Nations Conference on International Organization as delegates arrived to draft a charter for the organization. The U.S. Secretary of State, Edward Stettinius drafted the charter in the hotel's Garden Room.",Paramount Pictures,Paramount Pictures,William Friedkin,Joe Eszterhas,David Caruso,Linda Fiorentino,Chazz Palminteri,37.7923686,-122.41003009790424
Jade,1995,Lombard & Hyde Streets,,Paramount Pictures,Paramount Pictures,William Friedkin,Joe Eszterhas,David Caruso,Linda Fiorentino,Chazz Palminteri,37.8019701,-122.4196017
Jade,1995,Hall of Justice (850 Bryant Street),,Paramount Pictures,Paramount Pictures,William Friedkin,Joe Eszterhas,David Caruso,Linda Fiorentino,Chazz Palminteri,37.77513815,-122.40427695123522
Jade,1995,Washington Square (North Beach),"Washington Square Park is not actually a square, as it has 5 sides. North Beach is not a beach.",Paramount Pictures,Paramount Pictures,William Friedkin,Joe Eszterhas,David Caruso,Linda Fiorentino,Chazz Palminteri,37.800864700000005,-122.41010153142976
Jade,1995,War Memorial Opera House (401 Van Ness Avenue),In 1945 the United Nations had its first conference at The War Memorial Opera House.,Paramount Pictures,Paramount Pictures,William Friedkin,Joe Eszterhas,David Caruso,Linda Fiorentino,Chazz Palminteri,37.7785697,-122.42093450339144
Jade,1995,Palace of Fine Arts,"The original Palace was built for the 1915 Panama-Pacific Exposition, and completely destroyed in 1964. It was rebuilt in 1965.",Paramount Pictures,Paramount Pictures,William Friedkin,Joe Eszterhas,David Caruso,Linda Fiorentino,Chazz Palminteri,37.80291855,-122.44840286435333
Nine Months,1995,Alamo Square,,1492 Pictures,Twentieth Century Fox Film Corp.,Chris Columbus,Chris Columbus,Hugh Grant,Julianne Moore,Robin Williams,37.7763599,-122.43470002366266
Nine Months,1995,60 Spear Street,,1492 Pictures,Twentieth Century Fox Film Corp.,Chris Columbus,Chris Columbus,Hugh Grant,Julianne Moore,Robin Williams,37.79256375,-122.39455989469934
Panther,1995,,,Gramercy Pictures,PolyGram Video,Mario Van Peebles,Mario Van Peebles,Kadeem Hardison,Bookeem Woodbine,,44.933143,7.540121
The Net,1995,Moscone Convention Center,,Columbia Pictures Corp.,Columbia Pictures,Irwin Winkler,John Brancato,Sandra Bullock,Jeremy Northam,,37.784398800000005,-122.40058448387192
The Net,1995,Montgomery & Market Streets,,Columbia Pictures Corp.,Columbia Pictures,Irwin Winkler,John Brancato,Sandra Bullock,Jeremy Northam,,30.1640251,-95.46430643673304
Down Periscope,1996,,,Twentieth Century Fox Film Corp.,Twentieth Century Fox Film Corp.,David S. Ward,Hugh Wilson,Kelsey Grammar,Lauren Holly,,44.933143,7.540121
Dream for an Insomniac,1996,Baker Beach,"From 1986-1990, the north end of Baker Beach was home to the Burning Man festival.",Triton Productions,Columbia TriStar Home Video,Tiffanie DeBartolo,Tiffanie DeBartolo,Ione Skye,Jennifer Aniston,,37.7931092,-122.4838421914283
Dream for an Insomniac,1996,Elbo Room (647 Valencia Street),"This location is called the ""Café Blue Eyes"" in the film.",Triton Productions,Columbia TriStar Home Video,Tiffanie DeBartolo,Tiffanie DeBartolo,Ione Skye,Jennifer Aniston,,37.7625463,-122.4215367
Happy Gilmore,1996,,,Brillstein-Grey Entertainment,Universal Pictures,Dennis Dugan,Tim Herlihy,Adam Sandler,,,44.933143,7.540121
Jack,1996,,,American Zoetrope,Buena Vista Pictures,Francis Ford Coppola,James DeMonaco,Robin Williams,Diane Lane,,44.933143,7.540121
James and the Giant Peach,1996,,,Skellington Productions,Walt Disney Studios Home Entertainment,Henry Selick,Karey Kirkpatrick,Richard Dreyfuss,Jane Leeves,,44.933143,7.540121
Mother,1996,Golden Gate Bridge,"With 23 miles of ladders and 300,000 rivets in each tower, the Golden Gate Bridge was the world's longest span when it opened in 1937.",Paramount Pictures,Paramount Pictures,Albert Brooks,Albert Brooks,Albert Brooks,Debbie Reynolds,,37.81990665,-122.47858000733174
Mother,1996,"Fairmont Hotel (950 Mason Street, Nob Hill)","In 1945 the Fairmont hosted the United Nations Conference on International Organization as delegates arrived to draft a charter for the organization. The U.S. Secretary of State, Edward Stettinius drafted the charter in the hotel's Garden Room.",Paramount Pictures,Paramount Pictures,Albert Brooks,Albert Brooks,Albert Brooks,Debbie Reynolds,,37.7923686,-122.41003009790424
Phenomenon,1996,Treasure Island,"An artificial island, Treasure Island was created for the 1939 Golden Gate International Exposition, and is named after the novel by Robert Louis Stevenson, a one-time San Francisco resident.",Touchstone Pictures,Buena Vista Pictures,Jon Turteltaub,Gerald Dipego,John Travolta,Kyra Sedgwick,,37.8233541,-122.37015310228703
The Rock,1996,Palace of Fine Arts (3301 Lyon Street),"The original Palace was built for the 1915 Panama-Pacific Exposition, and completely destroyed in 1964. It was rebuilt in 1965.",Hollywood Pictures,Buena Vista Pictures,Michael Bay,David Weisberg,Sean Connery,Nicolas Cage,,37.80291855,-122.44840286435333
The Rock,1996,The San Francisco Bay,,Hollywood Pictures,Buena Vista Pictures,Michael Bay,David Weisberg,Sean Connery,Nicolas Cage,,37.8069936,-122.4064735
The Rock,1996,"Fairmont Hotel (950 Mason Street, Nob Hill)","In 1945 the Fairmont hosted the United Nations Conference on International Organization as delegates arrived to draft a charter for the organization. The U.S. Secretary of State, Edward Stettinius drafted the charter in the hotel's Garden Room.",Hollywood Pictures,Buena Vista Pictures,Michael Bay,David Weisberg,Sean Connery,Nicolas Cage,,37.7923686,-122.41003009790424
The Rock,1996,Coit Tower,"The Tower was funded by a gift bequeathed by Lillie Hitchcock Coit, a socialite who reportedly liked to chase fires. Though the tower resembles a firehose nozzle, it was not designed this way.",Hollywood Pictures,Buena Vista Pictures,Michael Bay,David Weisberg,Sean Connery,Nicolas Cage,,37.80237905,-122.40583435461312
The Rock,1996,City Hall,"The dome of SF's City Hall is almost a foot taller than that of the US Capitol Building. In 1954, Joe DiMaggio and Marilyn Monroe married at the Beaux Arts-style building.",Hollywood Pictures,Buena Vista Pictures,Michael Bay,David Weisberg,Sean Connery,Nicolas Cage,,42.0494355,13.039210233090513
The Rock,1996,Alcatraz Island,Alcatraz Island was a military fort before it became a prison.,Hollywood Pictures,Buena Vista Pictures,Michael Bay,David Weisberg,Sean Connery,Nicolas Cage,,37.82672135,-122.42275899441964
Tin Cup,1996,,,Regency Enterprises,Warner Bros. Pictures,Ron Shelton,John Norville,Kevin Costner,Rene Russo,,44.933143,7.540121
A Smile Like Yours,1997,75 California Street,,Paramount Pictures,Paramount Pictures,Keith Samples,Keith Samples & Kevin Meyer,Greg Kinnear,Lauren Holly,,42.9133954,-78.8945747
A Smile Like Yours,1997,San Francisco International Airport,SFO has a museum dedicated to aviation history.,Paramount Pictures,Paramount Pictures,Keith Samples,Keith Samples & Kevin Meyer,Greg Kinnear,Lauren Holly,,37.622452,-122.38407160781362
Dream with the Fishes,1997,Pier 39,,3 Ring Circus Films,Sony Pictures Classics,Finn Taylor,Finn Taylor & Jeffrey Brown,David Arquette,Brad Hunt,,37.8086301,-122.40979
Dream with the Fishes,1997,Bay Bridge,"Before opening in 1936, the bridge was blessed by Cardinal Secretary of State Eugenio Pacelli, who later became Pope Pius XII.",3 Ring Circus Films,Sony Pictures Classics,Finn Taylor,Finn Taylor & Jeffrey Brown,David Arquette,Brad Hunt,,38.9925372,-76.3794605
Fathers' Day,1997,,,Northern Lights Entertainment,Columbia Broadcasting System,Ivan Reitman,Lowell Ganz,Robin Williams,Billy Crystal,,44.933143,7.540121
Flubber,1997,Treasure Island,"An artificial island, Treasure Island was created for the 1939 Golden Gate International Exposition, and is named after the novel by Robert Louis Stevenson, a one-time San Francisco resident.",Walt Disney Pictures,Buena Vista Pictures,Les Mayfield,Samuel W. Taylor,Robin Williams,Marcia Gay Harden,,37.8233541,-122.37015310228703
George of the Jungle,1997,755 Vallejo Street,,Walt Disney Pictures,Buena Vista Pictures,Sam Weisman,Jay Ward,Brendan Fraser,Leslie Mann,,39.7285069,-105.01351322573224
George of the Jungle,1997,"Neiman Marcus (150 Stockton Street, Union Square)",The City of Paris department store previously occupied the space that now houses Neiman Marcus. City of Paris' original rotunda and glass dome were incorporated into Neiman Marcus' design.,Walt Disney Pictures,Buena Vista Pictures,Sam Weisman,Jay Ward,Brendan Fraser,Leslie Mann,,37.78736295,-122.4059186080106
George of the Jungle,1997,Bay Bridge,"Before opening in 1936, the bridge was blessed by Cardinal Secretary of State Eugenio Pacelli, who later became Pope Pius XII.",Walt Disney Pictures,Buena Vista Pictures,Sam Weisman,Jay Ward,Brendan Fraser,Leslie Mann,,38.9925372,-76.3794605
The Game,1997,Ritz-Carlton Hotel (600 Stockton Street),,Polygram Filmed Entertainment,Polygram Filmed Entertainment,David Fincher,John Brancato,Michael Douglas,Sean Penn,Deborah Kara Unger,37.791867,-122.40683426104562
The Game,1997,Merchant Exchange Building,,Polygram Filmed Entertainment,Polygram Filmed Entertainment,David Fincher,John Brancato,Michael Douglas,Sean Penn,Deborah Kara Unger,41.118604000000005,-87.86198392319132
The Game,1997,Mason & California Streets (Nob Hill),,Polygram Filmed Entertainment,Polygram Filmed Entertainment,David Fincher,John Brancato,Michael Douglas,Sean Penn,Deborah Kara Unger,37.7919822,-122.4107894
The Game,1997,City Club (155 Sansome Street),,Polygram Filmed Entertainment,Polygram Filmed Entertainment,David Fincher,John Brancato,Michael Douglas,Sean Penn,Deborah Kara Unger,37.7916887,-122.4010301
The Game,1997,Bay Bridge,"Before opening in 1936, the bridge was blessed by Cardinal Secretary of State Eugenio Pacelli, who later became Pope Pius XII.",Polygram Filmed Entertainment,Polygram Filmed Entertainment,David Fincher,John Brancato,Michael Douglas,Sean Penn,Deborah Kara Unger,38.9925372,-76.3794605
The Game,1997,Bank of America Building (555 California Street),"The Bank of America Building was the tallest building on the West Coast from 1969-1972, when it was surpassed by the TransAmerica Pyramid. Today, the Bank of America building is the 5th tallest building on the West Coast.",Polygram Filmed Entertainment,Polygram Filmed Entertainment,David Fincher,John Brancato,Michael Douglas,Sean Penn,Deborah Kara Unger,37.7921033,-122.40374513697353
The Game,1997,301 Howard Street,,Polygram Filmed Entertainment,Polygram Filmed Entertainment,David Fincher,John Brancato,Michael Douglas,Sean Penn,Deborah Kara Unger,37.7895328,-122.3942379
The Game,1997,1 Bush Street,,Polygram Filmed Entertainment,Polygram Filmed Entertainment,David Fincher,John Brancato,Michael Douglas,Sean Penn,Deborah Kara Unger,37.7909419,-122.40012265970527
Around the Fire,1998,Ocean Beach,"On Jan. 25, 1878, the King Philip ship crashed in Ocean Beach. Occasionally, the ship's wreckage may be found on the beach-- most recently it was seen in 2007.",Paradigm Studio,Ardustry Home Entertainment,John Jacobsen,John Comerford,Tara Reid,,,40.6467664,-73.1570589
Desperate Measures,1998,,,Mandalay Entertainment,TriStar Pictures,Barbet Schroeder,David Klass,Michael Keaton,Andy Garcia,Raven-Symone,44.933143,7.540121
Doctor Dolittle,1998,Webster Street,,Twentieth Century Fox Film Cooperation,Twentieth Century Fox Film Cooperation,Betty Thomas,Nat Mauldin,Eddie Murphy,Ossie Davis,,42.285432,-94.29342
Doctor Dolittle,1998,Telegraph Hill Blvd (Telegraph Hill),,Twentieth Century Fox Film Cooperation,Twentieth Century Fox Film Cooperation,Betty Thomas,Nat Mauldin,Eddie Murphy,Ossie Davis,,37.8024334,-122.4063728
Doctor Dolittle,1998,Larkin & Hyde Streets,,Twentieth Century Fox Film Cooperation,Twentieth Century Fox Film Cooperation,Betty Thomas,Nat Mauldin,Eddie Murphy,Ossie Davis,,37.8035004,-122.4216801
Doctor Dolittle,1998,Coit Tower,"The Tower was funded by a gift bequeathed by Lillie Hitchcock Coit, a socialite who reportedly liked to chase fires. Though the tower resembles a firehose nozzle, it was not designed this way.",Twentieth Century Fox Film Cooperation,Twentieth Century Fox Film Cooperation,Betty Thomas,Nat Mauldin,Eddie Murphy,Ossie Davis,,37.80237905,-122.40583435461312
Doctor Dolittle,1998,2107 Union Street,,Twentieth Century Fox Film Cooperation,Twentieth Century Fox Film Cooperation,Betty Thomas,Nat Mauldin,Eddie Murphy,Ossie Davis,,45.326501941729646,-60.97116432898167
Doctor Dolittle,1998,2100 Green Street,,Twentieth Century Fox Film Cooperation,Twentieth Century Fox Film Cooperation,Betty Thomas,Nat Mauldin,Eddie Murphy,Ossie Davis,,-33.7633618,151.267429
Patch Adams,1998,Treasure Island,"An artificial island, Treasure Island was created for the 1939 Golden Gate International Exposition, and is named after the novel by Robert Louis Stevenson, a one-time San Francisco resident.",Bungalow 78 Productions,Universal Pictures,Tom Shadyac,Steve Oedekerk,Robin Williams,Philip Seymour Hoffman,,37.8233541,-122.37015310228703
The Parent Trap,1998,Administration Building (Treasure Island),"An artificial island, Treasure Island was created for the 1939 Golden Gate International Exposition, and is named after the novel by Robert Louis Stevenson, a one-time San Francisco resident.",Walt Disney Pictures,Buena Vista Pictures,Nancy Meyers,Nancy Meyers,Lindsay Lohan,Dennis Quaid,,37.817412,-122.3712223
What Dreams May Come,1998,Treasure Island,"An artificial island, Treasure Island was created for the 1939 Golden Gate International Exposition, and is named after the novel by Robert Louis Stevenson, a one-time San Francisco resident.",Polygram Filmed Entertainment,Polygram Filmed Entertainment,Vincent Ward,Ron Bass,Robin Williams,"Cuba Gooding, Jr.",,37.8233541,-122.37015310228703
Bicentennial Man,1999,City Hall,"The dome of SF's City Hall is almost a foot taller than that of the US Capitol Building. In 1954, Joe DiMaggio and Marilyn Monroe married at the Beaux Arts-style building.",1492 Pictures,Buena Vista Pictures,Chris Columbus,Nicholas Kazan,Robin Williams,,,42.0494355,13.039210233090513
Bicentennial Man,1999,Golden Gate Bridge,"With 23 miles of ladders and 300,000 rivets in each tower, the Golden Gate Bridge was the world's longest span when it opened in 1937.",1492 Pictures,Buena Vista Pictures,Chris Columbus,Nicholas Kazan,Robin Williams,,,37.81990665,-122.47858000733174
Bicentennial Man,1999,Treasure Island,"An artificial island, Treasure Island was created for the 1939 Golden Gate International Exposition, and is named after the novel by Robert Louis Stevenson, a one-time San Francisco resident.",1492 Pictures,Buena Vista Pictures,Chris Columbus,Nicholas Kazan,Robin Williams,,,37.8233541,-122.37015310228703
Edtv,1999,Palace of Fine Arts (3301 Lyon Street),"The original Palace was built for the 1915 Panama-Pacific Exposition, and completely destroyed in 1964. It was rebuilt in 1965.",Imagine Entertainment,MCA / Universal Pictures,Ron Howard,Lowell Ganz,Matthew McConaughey,Jenna Elfman,,37.80291855,-122.44840286435333
Edtv,1999,"Castro Theatre (429 Castro Street, The Castro)","The original Castro Theatre was built in 1910, a few doors down from the current theatre. The original theatre was converted into retail space, and the current theatre was built in the 1920s.",Imagine Entertainment,MCA / Universal Pictures,Ron Howard,Lowell Ganz,Matthew McConaughey,Jenna Elfman,,37.76199205,-122.43475011664144
Edtv,1999,20th & Connecticut Streets (Potrero Hill),,Imagine Entertainment,MCA / Universal Pictures,Ron Howard,Lowell Ganz,Matthew McConaughey,Jenna Elfman,,37.7612435,-122.3973721
Edtv,1999,19 Green Street (North Beach),,Imagine Entertainment,MCA / Universal Pictures,Ron Howard,Lowell Ganz,Matthew McConaughey,Jenna Elfman,,37.80048597959183,-122.40054779591836
Edtv,1999,1138 Filbert Street,,Imagine Entertainment,MCA / Universal Pictures,Ron Howard,Lowell Ganz,Matthew McConaughey,Jenna Elfman,,37.80033785714286,-122.41827581632651
Seven Girlfriends,1999,Golden Gate Bridge,"With 23 miles of ladders and 300,000 rivets in each tower, the Golden Gate Bridge was the world's longest span when it opened in 1937.",White Dwarf Productions,Lions Gate Films Home Entertainment,Paul Lazarus,Paul Lazarus,Laura Leighton,Tim Daly,,37.81990665,-122.47858000733174
The Bachelor,1999,Washington Square Park (North Beach),"Washington Square Park is not actually a square, as it has 5 sides. North Beach is not a beach. The statue in the Park is Ben Franklin, not George Washington.",George Street Pictures,New Line Cinema,Gary Sinyor,Steve Cohen,Chris O'Donnell,Renee Zellweger,,37.800864700000005,-122.41010153142976
The Other Sister,1999,Palace of Fine Arts (3301 Lyon Street),"The original Palace was built for the 1915 Panama-Pacific Exposition, and completely destroyed in 1964. It was rebuilt in 1965.",Mandeville Films,Buena Vista Pictures,Garry Marshall,Garry Marshall,Juliette Lewis,Diane Keaton,,37.80291855,-122.44840286435333
Bedazzled,2000,Montgomery & Market Streets,,Twentieth Century Fox Film Corp.,Twentieth Century Fox Film Corp.,Harold Ramis,Harold Ramis,Brendan Fraser,Elizabeth Hurley,,30.1640251,-95.46430643673304
Bedazzled,2000,City Hall,"The dome of SF's City Hall is almost a foot taller than that of the US Capitol Building. In 1954, Joe DiMaggio and Marilyn Monroe married at the Beaux Arts-style building.",Twentieth Century Fox Film Corp.,Twentieth Century Fox Film Corp.,Harold Ramis,Harold Ramis,Brendan Fraser,Elizabeth Hurley,,42.0494355,13.039210233090513
Boys and Girls,2000,1122 Folsom Street,,Punch 21 Productions,Dimension Films,Robert Iscove,The Drews,"Freddie Prinze, Jr.",Alyson Hannigan,,37.7763885,-122.40870297973058
Boys and Girls,2000,Golden Gate Bridge,"With 23 miles of ladders and 300,000 rivets in each tower, the Golden Gate Bridge was the world's longest span when it opened in 1937.",Punch 21 Productions,Dimension Films,Robert Iscove,The Drews,"Freddie Prinze, Jr.",Alyson Hannigan,,37.81990665,-122.47858000733174
Boys and Girls,2000,Fisherman's Wharf,"Supposedly, Mikhail S. Gorbachev has said that his favorite part of visiting America was touring Fisherman's Wharf.",Punch 21 Productions,Dimension Films,Robert Iscove,The Drews,"Freddie Prinze, Jr.",Alyson Hannigan,,53.5694661,-0.0860007
Boys and Girls,2000,Ferry Building,"Every hour and half-hour, the clock bell atop the Ferry Building chimes portions of the Westminster Quarters.",Punch 21 Productions,Dimension Films,Robert Iscove,The Drews,"Freddie Prinze, Jr.",Alyson Hannigan,,37.7947815,-122.393678
Boys and Girls,2000,Coit Tower,"The Tower was funded by a gift bequeathed by Lillie Hitchcock Coit, a socialite who reportedly liked to chase fires. Though the tower resembles a firehose nozzle, it was not designed this way.",Punch 21 Productions,Dimension Films,Robert Iscove,The Drews,"Freddie Prinze, Jr.",Alyson Hannigan,,37.80237905,-122.40583435461312
